category_id,category_name,category_slug,parent_category_id,listing_id,listing_title,listing_slug,listing_url,region_ids,maps_url,latitude,longitude
3,Restaurants,restaurants,47,19839,Azra Claire&#8217;s Asian Restaurant,azra-claires-asian-restaurant,https://newcyprusguide.com/business/azra-claires-asian-restaurant/,37,"//maps.google.com/maps?daddr=35.33876479817026,33.31932947395705",35.33876479817026,33.31932947395705
3,Restaurants,restaurants,47,2475,Crispy Squid &#8211; Fish &amp; chips,crispy-squid-fish-ships,https://newcyprusguide.com/business/crispy-squid-fish-ships/,41;37,"//maps.google.com/maps?daddr=35.33000574968321,33.3691380953636",35.33000574968321,33.3691380953636
3,Restaurants,restaurants,47,10019,Kömür Steak &amp; Ocakbaşı,komur-restaurant,https://newcyprusguide.com/business/komur-restaurant/,42,"//maps.google.com/maps?daddr=35.33836439272882,33.334164772018426",35.33836439272882,33.334164772018426
3,Restaurants,restaurants,47,10038,Khephal Fish Restaurant,khephal-fish-restaurant,https://newcyprusguide.com/business/khephal-fish-restaurant/,42,"//maps.google.com/maps?daddr=35.33773424221159,33.33369806736732",35.33773424221159,33.33369806736732
3,Restaurants,restaurants,47,19329,Mystique Shisha Lounge,mystique-shisha-lounge,https://newcyprusguide.com/business/mystique-shisha-lounge/,37,"//maps.google.com/maps?daddr=35.338815122211145,33.33381608484648",35.338815122211145,33.33381608484648
3,Restaurants,restaurants,47,19317,Spice Restaurant Buffet,spice-restaurant-buffet,https://newcyprusguide.com/business/spice-restaurant-buffet/,37,"//maps.google.com/maps?daddr=35.338276872149535,33.33256617544554",35.338276872149535,33.33256617544554
3,Restaurants,restaurants,47,19586,Pisces &amp; Spices,pisces-spices,https://newcyprusguide.com/business/pisces-spices/,46,"//maps.google.com/maps?daddr=35.31399664501862,33.95220943151377",35.31399664501862,33.95220943151377
3,Restaurants,restaurants,47,19245,Ezic Premier,ezic-premier,https://newcyprusguide.com/business/ezic-premier/,37,"//maps.google.com/maps?daddr=35.32685462323872,33.30838337896727",35.32685462323872,33.30838337896727
3,Restaurants,restaurants,47,19230,Ezic Peanuts,ezic-peanuts,https://newcyprusguide.com/business/ezic-peanuts/,37,"//maps.google.com/maps?daddr=35.34032482886178,33.327233943923936",35.34032482886178,33.327233943923936
3,Restaurants,restaurants,47,19274,Rabinez,rabinez,https://newcyprusguide.com/business/rabinez/,37,"//maps.google.com/maps?daddr=35.33017424395706,33.36233333109282",35.33017424395706,33.36233333109282
3,Restaurants,restaurants,47,19208,Tumba Restaurant,tumba-restaurant,https://newcyprusguide.com/business/tumba-restaurant/,63,"//maps.google.com/maps?daddr=35.3405129932213,33.5796244478073",35.3405129932213,33.5796244478073
3,Restaurants,restaurants,47,19191,The Village Bistro Bar,the-village-bistro-bar,https://newcyprusguide.com/business/the-village-bistro-bar/,63,"//maps.google.com/maps?daddr=35.34204892311579,33.527251634582505",35.34204892311579,33.527251634582505
3,Restaurants,restaurants,47,6269,SushiCo &#8211; Kyrenia,sushico-kyrenia,https://newcyprusguide.com/business/sushico-kyrenia/,42,"//maps.google.com/maps?daddr=35.33039525539404,33.32512572763824",35.33039525539404,33.32512572763824
3,Restaurants,restaurants,47,16215,Sea Point Restaurant,sea-point,https://newcyprusguide.com/business/sea-point/,38,"//maps.google.com/maps?daddr=35.35078260181204,33.17551747320556",35.35078260181204,33.17551747320556
3,Restaurants,restaurants,47,3660,Blue Song Restaurant,blue-song-restaurant,https://newcyprusguide.com/business/blue-song-restaurant/,38,"//maps.google.com/maps?daddr=35.35107137465965,33.17469135282897",35.35107137465965,33.17469135282897
3,Restaurants,restaurants,47,17898,Shell Wi Fish Restaurant,shell-wi,https://newcyprusguide.com/business/shell-wi/,37,"//maps.google.com/maps?daddr=35.341852010658535,33.30504134653472",35.341852010658535,33.30504134653472
3,Restaurants,restaurants,47,17810,Parea Restaurant &amp; Bar,parea-restaurant-bar,https://newcyprusguide.com/business/parea-restaurant-bar/,37,"//maps.google.com/maps?daddr=35.336097579159066,33.322223577484124",35.336097579159066,33.322223577484124
3,Restaurants,restaurants,47,8454,Three B &#8211; Burger Beer Bar,three-b-burger-beer-bar,https://newcyprusguide.com/business/three-b-burger-beer-bar/,42,"//maps.google.com/maps?daddr=35.33708220676417,33.306741867050164",35.33708220676417,33.306741867050164
3,Restaurants,restaurants,47,17779,Açmenya Restaurant,acmenya-restaurant,https://newcyprusguide.com/business/acmenya-restaurant/,39,"//maps.google.com/maps?daddr=35.343619829756435,33.206561360343926",35.343619829756435,33.206561360343926
3,Restaurants,restaurants,47,17490,Altin Inci Restaurant,altin-inci-restaurant,https://newcyprusguide.com/business/altin-inci-restaurant/,38,"//maps.google.com/maps?daddr=35.33821560768762,33.17279234884643",35.33821560768762,33.17279234884643
3,Restaurants,restaurants,47,17514,Grön Vegan Kitchen,gron-vegan-kitchen,https://newcyprusguide.com/business/gron-vegan-kitchen/,45,"//maps.google.com/maps?daddr=35.175552656314125,33.36443350075149",35.175552656314125,33.36443350075149
3,Restaurants,restaurants,47,17011,"Limos Breakfast, Café &amp; Bar",limos,https://newcyprusguide.com/business/limos/,42,"//maps.google.com/maps?daddr=35.339952874769615,33.32263663767242",35.339952874769615,33.32263663767242
3,Restaurants,restaurants,47,16701,Sova Café,sova-cafe,https://newcyprusguide.com/business/sova-cafe/,42,"//maps.google.com/maps?daddr=35.33250296712789,33.33278343437575",35.33250296712789,33.33278343437575
3,Restaurants,restaurants,47,16622,Cafe de DJ,cafe-de-dj,https://newcyprusguide.com/business/cafe-de-dj/,42,"//maps.google.com/maps?daddr=35.33640609709923,33.319916877731316",35.33640609709923,33.319916877731316
3,Restaurants,restaurants,47,15921,Shayna Restaurant,shayna-restaurant,https://newcyprusguide.com/business/shayna-restaurant/,41,"//maps.google.com/maps?daddr=35.333436836554924,33.39616671560668",35.333436836554924,33.39616671560668
3,Restaurants,restaurants,47,15455,Erol&#8217;s Bar &amp; Restaurant,erols-bar-restaurant,https://newcyprusguide.com/business/erols-bar-restaurant/,40,"//maps.google.com/maps?daddr=35.31725168329524,33.3567275142517",35.31725168329524,33.3567275142517
3,Restaurants,restaurants,47,15087,The Cabin Restaurant,cabin-restaurant,https://newcyprusguide.com/business/cabin-restaurant/,38,"//maps.google.com/maps?daddr=35.35125732632547,33.16969439743423",35.35125732632547,33.16969439743423
3,Restaurants,restaurants,47,14007,Bigos Grill,bigos-grill,https://newcyprusguide.com/business/bigos-grill/,45,"//maps.google.com/maps?daddr=35.21877334936414,33.34753290174865",35.21877334936414,33.34753290174865
3,Restaurants,restaurants,47,13617,Salash Street Restaurant,salash-street-restaurant,https://newcyprusguide.com/business/salash-street-restaurant/,45,"//maps.google.com/maps?daddr=35.19419041385347,33.320442590698235",35.19419041385347,33.320442590698235
3,Restaurants,restaurants,47,13575,Bildiğin Meyhane,bildigin-meyhane,https://newcyprusguide.com/business/bildigin-meyhane/,45,"//maps.google.com/maps?daddr=35.18948205437495,33.35320309160613",35.18948205437495,33.35320309160613
3,Restaurants,restaurants,47,13225,Zümrüd-ü Anka Restaurant &amp; Meyhane,zumrud-u-anka-restaurant-meyhane,https://newcyprusguide.com/business/zumrud-u-anka-restaurant-meyhane/,45,"//maps.google.com/maps?daddr=35.20322496514522,33.36892620085143",35.20322496514522,33.36892620085143
3,Restaurants,restaurants,47,12941,Maçakızı Coffee House,macakizi-coffee-house,https://newcyprusguide.com/business/macakizi-coffee-house/,45,"//maps.google.com/maps?daddr=35.199643703315154,33.367408070549004",35.199643703315154,33.367408070549004
3,Restaurants,restaurants,47,12959,Matbah-ı Amire Turkish &amp; Ottoman Kitchen,matbah-i-amire,https://newcyprusguide.com/business/matbah-i-amire/,45,"//maps.google.com/maps?daddr=35.19010459055499,33.35001126287841",35.19010459055499,33.35001126287841
3,Restaurants,restaurants,47,12995,Cafe Göktan,cafe-goktan,https://newcyprusguide.com/business/cafe-goktan/,45,"//maps.google.com/maps?daddr=35.19022953562244,33.3604557847824",35.19022953562244,33.3604557847824
3,Restaurants,restaurants,47,12434,Hamurcu Kebap House,hamurcu-kebap,https://newcyprusguide.com/business/hamurcu-kebap/,45,"//maps.google.com/maps?daddr=35.19023611167285,33.360528204425805",35.19023611167285,33.360528204425805
3,Restaurants,restaurants,47,12449,Hamur Restaurant &amp; Bar,hamur-restaurant-bar,https://newcyprusguide.com/business/hamur-restaurant-bar/,45,"//maps.google.com/maps?daddr=35.18017413137599,33.35695281980895",35.18017413137599,33.35695281980895
3,Restaurants,restaurants,47,12352,Segafredo Zanetti,segafredo-zanetti,https://newcyprusguide.com/business/segafredo-zanetti/,45,"//maps.google.com/maps?daddr=35.18661043490216,33.351406011566155",35.18661043490216,33.351406011566155
3,Restaurants,restaurants,47,12336,Delicious Cafe &amp; Restaurant,delicious-cafe,https://newcyprusguide.com/business/delicious-cafe/,45,"//maps.google.com/maps?daddr=35.18371240763925,33.352098021492",35.18371240763925,33.352098021492
3,Restaurants,restaurants,47,12142,Chinese Kitchen,chinese-kitchen,https://newcyprusguide.com/business/chinese-kitchen/,45,"//maps.google.com/maps?daddr=35.19929740401871,33.33550587652587",35.19929740401871,33.33550587652587
3,Restaurants,restaurants,47,12262,El Sabor Latino Restaurant,el-sabor,https://newcyprusguide.com/business/el-sabor/,45,"//maps.google.com/maps?daddr=35.17686590104503,33.365171108230584",35.17686590104503,33.365171108230584
3,Restaurants,restaurants,47,12006,Haci&#8217;nin Yeri,hacinin-yeri,https://newcyprusguide.com/business/hacinin-yeri/,45,"//maps.google.com/maps?daddr=35.199115486708,33.334548327907555",35.199115486708,33.334548327907555
3,Restaurants,restaurants,47,11844,Doğuş Adres Restaurant,dogus-adres-restaurant,https://newcyprusguide.com/business/dogus-adres-restaurant/,68,"//maps.google.com/maps?daddr=35.346730922395906,33.26937333105468",35.346730922395906,33.26937333105468
3,Restaurants,restaurants,47,11639,TasEv GuestHouse,tasev-guesthouse,https://newcyprusguide.com/business/tasev-guesthouse/,45,"//maps.google.com/maps?daddr=35.17739426230579,33.35800424574279",35.17739426230579,33.35800424574279
3,Restaurants,restaurants,47,11491,Furnos Restaurant,furnos-restaurant,https://newcyprusguide.com/business/furnos-restaurant/,45,"//maps.google.com/maps?daddr=35.19954069038757,33.3367531037178",35.19954069038757,33.3367531037178
3,Restaurants,restaurants,47,4554,Mozzarella Pizza,mozzarella-pizza,https://newcyprusguide.com/business/mozzarella-pizza/,42,"//maps.google.com/maps?daddr=35.33675399889543,33.30665603636169",35.33675399889543,33.30665603636169
3,Restaurants,restaurants,47,4938,Halil Ibrahim Sofrası,halil-ibrahim-sofrasi,https://newcyprusguide.com/business/halil-ibrahim-sofrasi/,42,"//maps.google.com/maps?daddr=35.34039484355856,33.31835046766662",35.34039484355856,33.31835046766662
3,Restaurants,restaurants,47,11284,Dub&#8217;Le Meyhane,duble-meyhane,https://newcyprusguide.com/business/duble-meyhane/,42,"//maps.google.com/maps?daddr=35.325506603859054,33.31884399412536",35.325506603859054,33.31884399412536
3,Restaurants,restaurants,47,11261,Hellim Cafe &amp; Restaurant,hellim-cafe-restaurant,https://newcyprusguide.com/business/hellim-cafe-restaurant/,42,"//maps.google.com/maps?daddr=35.34154570143759,33.317575309261315",35.34154570143759,33.317575309261315
3,Restaurants,restaurants,47,11235,Kebapçı Halil Usta,halil-usta-kebapci,https://newcyprusguide.com/business/halil-usta-kebapci/,42,"//maps.google.com/maps?daddr=35.339607174725,33.319181952461236",35.339607174725,33.319181952461236
3,Restaurants,restaurants,47,11248,Özgülen Kebap,ozgulen-kebap,https://newcyprusguide.com/business/ozgulen-kebap/,43,"//maps.google.com/maps?daddr=35.12433931212377,33.926911506637566",35.12433931212377,33.926911506637566
3,Restaurants,restaurants,47,11118,Old Şamdan,old-samdan,https://newcyprusguide.com/business/old-samdan/,45,"//maps.google.com/maps?daddr=35.180665202467246,33.35714325664901",35.180665202467246,33.35714325664901
3,Restaurants,restaurants,47,10999,HotChick Fried Chicken,hotchick-kyrenia,https://newcyprusguide.com/business/hotchick-kyrenia/,41,"//maps.google.com/maps?daddr=35.32742731066337,33.38316336630248",35.32742731066337,33.38316336630248
3,Restaurants,restaurants,47,10938,The Taj Indian Restaurant,taj-indian-restaurant,https://newcyprusguide.com/business/taj-indian-restaurant/,39,"//maps.google.com/maps?daddr=35.34794732262976,33.204914484053916",35.34794732262976,33.204914484053916
3,Restaurants,restaurants,47,10842,Temel Reis Restaurant,temel-reis-restaurant,https://newcyprusguide.com/business/temel-reis-restaurant/,43,"//maps.google.com/maps?daddr=35.13005174924149,33.929164562210076",35.13005174924149,33.929164562210076
3,Restaurants,restaurants,47,10774,Öztep Kebab &#8211; Edremit,oztep-kebab-edremit,https://newcyprusguide.com/business/oztep-kebab-edremit/,37,"//maps.google.com/maps?daddr=35.33338650916487,33.26599642990493",35.33338650916487,33.26599642990493
3,Restaurants,restaurants,47,10759,Öztep Kebab &#8211; Kyrenia,oztep-kebab,https://newcyprusguide.com/business/oztep-kebab/,42,"//maps.google.com/maps?daddr=35.34087181651146,33.318618687890876",35.34087181651146,33.318618687890876
3,Restaurants,restaurants,47,10731,Binny&#8217;s Bar &amp; Restaurant,binnys-restaurant,https://newcyprusguide.com/business/binnys-restaurant/,63,"//maps.google.com/maps?daddr=35.35250647288958,33.60346392153167",35.35250647288958,33.60346392153167
3,Restaurants,restaurants,47,2284,Ilgaz Village Breakfast Restaurant,ilgaz-village-breakfast-restaurant,https://newcyprusguide.com/business/ilgaz-village-breakfast-restaurant/,37,"//maps.google.com/maps?daddr=35.32289803499552,33.22053030489349",35.32289803499552,33.22053030489349
3,Restaurants,restaurants,47,2144,Green Heights Park,green-heights-park,https://newcyprusguide.com/business/green-heights-park/,39;37,"//maps.google.com/maps?daddr=35.339607174725,33.218797597869866",35.339607174725,33.218797597869866
3,Restaurants,restaurants,47,10647,Skali Restaurant,skali-restaurant,https://newcyprusguide.com/business/skali-restaurant/,63,"//maps.google.com/maps?daddr=35.424027779708204,33.89537945745849",35.424027779708204,33.89537945745849
3,Restaurants,restaurants,47,2653,Rafters Restaurant,rafters-restaurant,https://newcyprusguide.com/business/rafters-restaurant/,37;40,"//maps.google.com/maps?daddr=35.3245371539493,33.351379189476006",35.3245371539493,33.351379189476006
3,Restaurants,restaurants,47,410,Kybele Restaurant,kybele-restaurant,https://newcyprusguide.com/business/kybele-restaurant/,37;42,"//maps.google.com/maps?daddr=35.307349919485326,33.35524693487548",35.307349919485326,33.35524693487548
3,Restaurants,restaurants,47,10497,Lagoon Fish Restaurant,lagoon-restaurant,https://newcyprusguide.com/business/lagoon-restaurant/,42,"//maps.google.com/maps?daddr=35.34109717512613,33.31536516903304",35.34109717512613,33.31536516903304
3,Restaurants,restaurants,47,3215,Pulp Kitchen,pulp-kitchen,https://newcyprusguide.com/business/pulp-kitchen/,42,"//maps.google.com/maps?daddr=35.33299045339273,33.33447590826415",35.33299045339273,33.33447590826415
3,Restaurants,restaurants,47,3426,Ozzie&#8217;s Place,ozzies-place,https://newcyprusguide.com/business/ozzies-place/,38,"//maps.google.com/maps?daddr=35.349863772246806,33.15299764631652",35.349863772246806,33.15299764631652
3,Restaurants,restaurants,47,2836,Turtle Paradise,turtle-paradise,https://newcyprusguide.com/business/turtle-paradise/,66,"//maps.google.com/maps?daddr=35.33162503076902,33.48292008398437",35.33162503076902,33.48292008398437
3,Restaurants,restaurants,47,2823,SeaBreeze Restaurant &amp; Bar,seabreeze-restaurant-bar,https://newcyprusguide.com/business/seabreeze-restaurant-bar/,63,"//maps.google.com/maps?daddr=35.36243770377928,33.66709128378295",35.36243770377928,33.66709128378295
3,Restaurants,restaurants,47,3018,The Fez Restaurant,the-fez,https://newcyprusguide.com/business/the-fez/,41,"//maps.google.com/maps?daddr=35.32671457032361,33.38191882131957",35.32671457032361,33.38191882131957
3,Restaurants,restaurants,47,9846,Efendi Restaurant,efendi-restaurant,https://newcyprusguide.com/business/efendi-restaurant/,42,"//maps.google.com/maps?daddr=35.336171973663724,33.32105413435363",35.336171973663724,33.32105413435363
3,Restaurants,restaurants,47,9791,Calamari Restaurant,calamari-restaurant,https://newcyprusguide.com/business/calamari-restaurant/,38,"//maps.google.com/maps?daddr=35.35081760463643,33.17597881315612",35.35081760463643,33.17597881315612
3,Restaurants,restaurants,47,9764,Tree of Idleness &#8211; Steak &amp; Kebab House,tree-of-idleness,https://newcyprusguide.com/business/tree-of-idleness/,37,"//maps.google.com/maps?daddr=35.3068114599151,33.355407867416375",35.3068114599151,33.355407867416375
3,Restaurants,restaurants,47,3054,Bollywood Indian &amp; Grand Chinese Restaurant,bollywood-restaurant,https://newcyprusguide.com/business/bollywood-restaurant/,41,"//maps.google.com/maps?daddr=35.32899915319913,33.36296633242034",35.32899915319913,33.36296633242034
3,Restaurants,restaurants,47,9629,Royal China Restaurant,royal-china-restaurant,https://newcyprusguide.com/business/royal-china-restaurant/,41,"//maps.google.com/maps?daddr=35.32825513904547,33.37882891653442",35.32825513904547,33.37882891653442
3,Restaurants,restaurants,47,12276,George Café,george-cafe,https://newcyprusguide.com/business/george-cafe/,42,"//maps.google.com/maps?daddr=35.34046267023791,33.32007781027221",35.34046267023791,33.32007781027221
3,Restaurants,restaurants,47,561,Jashan Restaurant,jashan-restaurant,https://newcyprusguide.com/business/jashan-restaurant/,37;42,"//maps.google.com/maps?daddr=35.34159383582067,33.28053132055663",35.34159383582067,33.28053132055663
3,Restaurants,restaurants,47,9442,Cafe De Liman,cafe-de-liman,https://newcyprusguide.com/business/cafe-de-liman/,42,"//maps.google.com/maps?daddr=35.34226771417238,33.31850067137145",35.34226771417238,33.31850067137145
3,Restaurants,restaurants,47,9208,Gillham&#8217;s Chef Restaurant,gillhams-chef-restaurant,https://newcyprusguide.com/business/gillhams-chef-restaurant/,37,"//maps.google.com/maps?daddr=35.32387844658782,33.219323310836785",35.32387844658782,33.219323310836785
3,Restaurants,restaurants,47,8953,Ayandon Meyhanesi,ayandon-meyhanesi,https://newcyprusguide.com/business/ayandon-meyhanesi/,68,"//maps.google.com/maps?daddr=35.34394144615134,33.262675855144494",35.34394144615134,33.262675855144494
3,Restaurants,restaurants,47,8748,Azure Mediterranean Bistro,azure-mediterranean-bistro,https://newcyprusguide.com/business/azure-mediterranean-bistro/,42,"//maps.google.com/maps?daddr=35.3408346219836,33.3199866151657",35.3408346219836,33.3199866151657
3,Restaurants,restaurants,47,8706,Spaghetti Junction,spaghetti-junction,https://newcyprusguide.com/business/spaghetti-junction/,41,"//maps.google.com/maps?daddr=35.327734325063744,33.38116243785021",35.327734325063744,33.38116243785021
3,Restaurants,restaurants,47,8661,Çatırez Mangalbaşı,catirez-mangalbasi,https://newcyprusguide.com/business/catirez-mangalbasi/,43,"//maps.google.com/maps?daddr=35.17345668254556,33.771633062347405",35.17345668254556,33.771633062347405
3,Restaurants,restaurants,47,8531,Passage no 199,passage-no-199,https://newcyprusguide.com/business/passage-no-199/,43,"//maps.google.com/maps?daddr=35.142897784441914,33.91472086666499",35.142897784441914,33.91472086666499
3,Restaurants,restaurants,47,8362,Mevlana Sofrası,mevlana-sofrasi,https://newcyprusguide.com/business/mevlana-sofrasi/,42,"//maps.google.com/maps?daddr=35.33755701178859,33.30539003370666",35.33755701178859,33.30539003370666
3,Restaurants,restaurants,47,8311,Kumpir House &#8211; Kyrenia,kumpir-house-kyrenia,https://newcyprusguide.com/business/kumpir-house-kyrenia/,42,"//maps.google.com/maps?daddr=35.33748480659606,33.30561533926391",35.33748480659606,33.30561533926391
3,Restaurants,restaurants,47,8089,Ayguruş Evi Restaurant,aygurus-evi-restaurant,https://newcyprusguide.com/business/aygurus-evi-restaurant/,63,"//maps.google.com/maps?daddr=35.33567309155721,33.58441219089889",35.33567309155721,33.58441219089889
3,Restaurants,restaurants,47,8086,Eat &amp; Meet,eat-meet,https://newcyprusguide.com/business/eat-meet/,45,"//maps.google.com/maps?daddr=35.21128770548669,33.376094404443734",35.21128770548669,33.376094404443734
3,Restaurants,restaurants,47,8026,Fornello Pizza Grill,fornello-pizza-grill,https://newcyprusguide.com/business/fornello-pizza-grill/,42,"//maps.google.com/maps?daddr=35.33763796904889,33.311425003990166",35.33763796904889,33.311425003990166
3,Restaurants,restaurants,47,7897,Cadde Mutfak,cadde-mutfak,https://newcyprusguide.com/business/cadde-mutfak/,45,"//maps.google.com/maps?daddr=35.21124168504939,33.37556466816329",35.21124168504939,33.37556466816329
3,Restaurants,restaurants,47,7878,Mey-Han Café &amp; Restaurant,mey-han-cafe-restaurant,https://newcyprusguide.com/business/mey-han-cafe-restaurant/,45,"//maps.google.com/maps?daddr=35.17613583605868,33.362129483207696",35.17613583605868,33.362129483207696
3,Restaurants,restaurants,47,7848,Mektepbaşı Meyhanesi,mektepbasi-meyhane,https://newcyprusguide.com/business/mektepbasi-meyhane/,45,"//maps.google.com/maps?daddr=35.205134979937974,33.33270430920982",35.205134979937974,33.33270430920982
3,Restaurants,restaurants,47,7682,Meatballs Burger House,meatballs-burger-house,https://newcyprusguide.com/business/meatballs-burger-house/,45,"//maps.google.com/maps?daddr=35.18237296677604,33.35481241701507",35.18237296677604,33.35481241701507
3,Restaurants,restaurants,47,7644,Full Drabez Meyhane,full-drabez-meyhane,https://newcyprusguide.com/business/full-drabez-meyhane/,43,"//maps.google.com/maps?daddr=35.172619154904794,33.83300200460815",35.172619154904794,33.83300200460815
3,Restaurants,restaurants,47,7594,Pernara Meyhanesi,pernara-meyhanesi,https://newcyprusguide.com/business/pernara-meyhanesi/,43,"//maps.google.com/maps?daddr=35.16471702967638,33.70188489912414",35.16471702967638,33.70188489912414
3,Restaurants,restaurants,47,7459,Paşanın Yeri,pasanin-yeri-nicosia,https://newcyprusguide.com/business/pasanin-yeri-nicosia/,45,"//maps.google.com/maps?daddr=35.190836722071914,33.36702451465976",35.190836722071914,33.36702451465976
3,Restaurants,restaurants,47,6085,Mekhan Cafe &amp; Restaurant,mekhan-cafe-restaurant,https://newcyprusguide.com/business/mekhan-cafe-restaurant/,45,"//maps.google.com/maps?daddr=35.17697332747176,33.36259082315826",35.17697332747176,33.36259082315826
3,Restaurants,restaurants,47,6875,Sapqa Café,sapqa-cafe,https://newcyprusguide.com/business/sapqa-cafe/,37,"//maps.google.com/maps?daddr=35.338983598119654,33.30090538023376",35.338983598119654,33.30090538023376
3,Restaurants,restaurants,47,6674,Halil Kara Restaurant,halil-kara-restaurant,https://newcyprusguide.com/business/halil-kara-restaurant/,46,"//maps.google.com/maps?daddr=35.27892486388177,33.89188185690307",35.27892486388177,33.89188185690307
3,Restaurants,restaurants,47,6661,Dayi&#8217;inn Yeri Kebab,dayiinn-yeri-kebab,https://newcyprusguide.com/business/dayiinn-yeri-kebab/,43,"//maps.google.com/maps?daddr=35.124957959452495,33.93350437639617",35.124957959452495,33.93350437639617
3,Restaurants,restaurants,47,6694,Mavi Balikcilik Fish Restaurant,mavi-balikcilik-fish-restaurant,https://newcyprusguide.com/business/mavi-balikcilik-fish-restaurant/,46,"//maps.google.com/maps?daddr=35.2794635089961,33.92034009455108",35.2794635089961,33.92034009455108
3,Restaurants,restaurants,47,6497,Sarinç Restaurant and Butcher,sarinc-restaurant-and-butcher,https://newcyprusguide.com/business/sarinc-restaurant-and-butcher/,43,"//maps.google.com/maps?daddr=35.25769151056597,33.71487751959228",35.25769151056597,33.71487751959228
3,Restaurants,restaurants,47,4541,Sea Wise Bar &amp; Restaurant,sea-wise-bar-restaurant,https://newcyprusguide.com/business/sea-wise-bar-restaurant/,63,"//maps.google.com/maps?daddr=35.34954874256113,33.58171120642089",35.34954874256113,33.58171120642089
3,Restaurants,restaurants,47,3622,Oak Tree Park,oak-tree-park,https://newcyprusguide.com/business/oak-tree-park/,39,"//maps.google.com/maps?daddr=35.343191005904956,33.224585804924004",35.343191005904956,33.224585804924004
3,Restaurants,restaurants,47,6125,Haci&#8217;s Restaurant,hacis-restaurant,https://newcyprusguide.com/business/hacis-restaurant/,45,"//maps.google.com/maps?daddr=35.22784679472004,33.525449190124505",35.22784679472004,33.525449190124505
3,Restaurants,restaurants,47,6156,Kemeraltı Restaurant,kemeralti-restaurant,https://newcyprusguide.com/business/kemeralti-restaurant/,73,"//maps.google.com/maps?daddr=35.411157401101235,33.99747506140136",35.411157401101235,33.99747506140136
3,Restaurants,restaurants,47,6056,Garavolli Restaurant,garavolli-restaurant,https://newcyprusguide.com/business/garavolli-restaurant/,46,"//maps.google.com/maps?daddr=35.395009688549656,33.97177413462066",35.395009688549656,33.97177413462066
3,Restaurants,restaurants,47,5907,Zizzi Pizzeria,zizzi-pizzeria,https://newcyprusguide.com/business/zizzi-pizzeria/,43,"//maps.google.com/maps?daddr=35.12908654222272,33.919843885883324",35.12908654222272,33.919843885883324
3,Restaurants,restaurants,47,5911,Lavonne Patisserie,lavonne-patisserie,https://newcyprusguide.com/business/lavonne-patisserie/,43,"//maps.google.com/maps?daddr=35.12321608226787,33.93022403477096",35.12321608226787,33.93022403477096
3,Restaurants,restaurants,47,5908,6 Parmak Restaurant,6-parmak-restaurant,https://newcyprusguide.com/business/6-parmak-restaurant/,46,"//maps.google.com/maps?daddr=35.39115920804198,33.97018358461685",35.39115920804198,33.97018358461685
3,Restaurants,restaurants,47,5810,Yiannagi Restaurant,yiannagi-restaurant,https://newcyprusguide.com/business/yiannagi-restaurant/,73,"//maps.google.com/maps?daddr=35.57017882349784,34.26867857931518",35.57017882349784,34.26867857931518
3,Restaurants,restaurants,47,5697,Zapata Sandwich,zapata-sandwich,https://newcyprusguide.com/business/zapata-sandwich/,43,"//maps.google.com/maps?daddr=35.1367036887473,33.926859203561776",35.1367036887473,33.926859203561776
3,Restaurants,restaurants,47,4467,Kiyi Seafront Restaurant,kiyi-seafront-restaurant,https://newcyprusguide.com/business/kiyi-seafront-restaurant/,46,"//maps.google.com/maps?daddr=35.30693841412035,33.94506469725036",35.30693841412035,33.94506469725036
3,Restaurants,restaurants,47,5666,Satir Döner &#8211; Nicosia,satir-doner-nicosia,https://newcyprusguide.com/business/satir-doner-nicosia/,45,"//maps.google.com/maps?daddr=35.18286976022254,33.35240483996199",35.18286976022254,33.35240483996199
3,Restaurants,restaurants,47,5615,Aytotoro Meze Evi,aytotoro-meze-evi,https://newcyprusguide.com/business/aytotoro-meze-evi/,46,"//maps.google.com/maps?daddr=35.192309733158275,33.882247362121575",35.192309733158275,33.882247362121575
3,Restaurants,restaurants,47,5751,Shawarmaci Restaurant,shawarmaci-restaurant,https://newcyprusguide.com/business/shawarmaci-restaurant/,43,"//maps.google.com/maps?daddr=35.14317084898869,33.91451433657073",35.14317084898869,33.91451433657073
3,Restaurants,restaurants,47,5501,The Red Ribbon,the-red-ribbon,https://newcyprusguide.com/business/the-red-ribbon/,37,"//maps.google.com/maps?daddr=35.331962012214284,33.34104195593261",35.331962012214284,33.34104195593261
3,Restaurants,restaurants,47,5394,Red Wine Bar &amp; Bistro and Hotel,red-wine-bar-bistro,https://newcyprusguide.com/business/red-wine-bar-bistro/,62,"//maps.google.com/maps?daddr=35.35907784695996,33.045312318786614",35.35907784695996,33.045312318786614
3,Restaurants,restaurants,47,5457,Costa Coffee Famagusta,costa-coffee-famagusta,https://newcyprusguide.com/business/costa-coffee-famagusta/,43,"//maps.google.com/maps?daddr=35.13350007722888,33.923708949073784",35.13350007722888,33.923708949073784
3,Restaurants,restaurants,47,5108,Palmiye Restaurant,palmiye-restaurant,https://newcyprusguide.com/business/palmiye-restaurant/,46,"//maps.google.com/maps?daddr=35.370842965478225,34.036662592826815",35.370842965478225,34.036662592826815
3,Restaurants,restaurants,47,5118,Irini Restaurant,irini-restaurant,https://newcyprusguide.com/business/irini-restaurant/,73,"//maps.google.com/maps?daddr=35.59145689824137,34.38896306037145",35.59145689824137,34.38896306037145
3,Restaurants,restaurants,47,5241,Deyiz Café,deyiz-cafe,https://newcyprusguide.com/business/deyiz-cafe/,43,"//maps.google.com/maps?daddr=35.14324761395734,33.91469404457473",35.14324761395734,33.91469404457473
3,Restaurants,restaurants,47,5208,Karsel Restaurant,karsel-restaurant,https://newcyprusguide.com/business/karsel-restaurant/,46,"//maps.google.com/maps?daddr=35.313474097674366,33.952392492279046",35.313474097674366,33.952392492279046
3,Restaurants,restaurants,47,5153,Bekayi Restaurant,bekayi-restaurant,https://newcyprusguide.com/business/bekayi-restaurant/,46,"//maps.google.com/maps?daddr=35.42882489953116,34.1312319182739",35.42882489953116,34.1312319182739
3,Restaurants,restaurants,47,5255,Lokkum Restaurant,lokkum-restaurant,https://newcyprusguide.com/business/lokkum-restaurant/,46,"//maps.google.com/maps?daddr=35.27855700662335,33.91962662695312",35.27855700662335,33.91962662695312
3,Restaurants,restaurants,47,5223,Muhabbet Café,muhabbet-cafe,https://newcyprusguide.com/business/muhabbet-cafe/,43,"//maps.google.com/maps?daddr=35.14298222618661,33.914597485050194",35.14298222618661,33.914597485050194
3,Restaurants,restaurants,47,5080,David People Cafe &#8211; Famagusta,david-people,https://newcyprusguide.com/business/david-people/,43,"//maps.google.com/maps?daddr=35.13337723853669,33.923835012897484",35.13337723853669,33.923835012897484
3,Restaurants,restaurants,47,5024,Hodri Meyhane,hodri-meyhane,https://newcyprusguide.com/business/hodri-meyhane/,45,"//maps.google.com/maps?daddr=35.194413988383545,33.32002416609191",35.194413988383545,33.32002416609191
3,Restaurants,restaurants,47,4916,The Meyhane Restaurant,meyhane-restaurant,https://newcyprusguide.com/business/meyhane-restaurant/,68,"//maps.google.com/maps?daddr=35.33720036127065,33.28703299520873",35.33720036127065,33.28703299520873
3,Restaurants,restaurants,47,4567,Esentepe Beach Café,esentepe-halk-beach,https://newcyprusguide.com/business/esentepe-halk-beach/,63,"//maps.google.com/maps?daddr=35.35343402281275,33.59572306631469",35.35343402281275,33.59572306631469
3,Restaurants,restaurants,47,4779,Alevkaya Restaurant,alevkaya-restaurant,https://newcyprusguide.com/business/alevkaya-restaurant/,73,"//maps.google.com/maps?daddr=35.56996937824211,34.260803613647454",35.56996937824211,34.260803613647454
3,Restaurants,restaurants,47,4778,Hilltop Restaurant &amp; Bar,hilltop-restaurant-bar,https://newcyprusguide.com/business/hilltop-restaurant-bar/,46,"//maps.google.com/maps?daddr=35.32819386698666,33.954903039916985",35.32819386698666,33.954903039916985
3,Restaurants,restaurants,47,4749,Lungo Café,lungo-cafe,https://newcyprusguide.com/business/lungo-cafe/,45,"//maps.google.com/maps?daddr=35.209661634212736,33.3144934511032",35.209661634212736,33.3144934511032
3,Restaurants,restaurants,47,4777,Eddie&#8217;s Steak House,eddies-steak-house,https://newcyprusguide.com/business/eddies-steak-house/,46,"//maps.google.com/maps?daddr=35.31392606028675,33.95276800154113",35.31392606028675,33.95276800154113
3,Restaurants,restaurants,47,4780,Körfez Restaurant,korfez-restuarant,https://newcyprusguide.com/business/korfez-restuarant/,46,"//maps.google.com/maps?daddr=35.31292582971088,33.95222351311111",35.31292582971088,33.95222351311111
3,Restaurants,restaurants,47,4792,The Chinese House,chinese-house,https://newcyprusguide.com/business/chinese-house/,68,"//maps.google.com/maps?daddr=35.34012353627164,33.29502597807311",35.34012353627164,33.29502597807311
3,Restaurants,restaurants,47,4706,Republic Bar &amp; Restaurant,republic-bar-restaurant,https://newcyprusguide.com/business/republic-bar-restaurant/,43,"//maps.google.com/maps?daddr=35.126269827247775,33.92089262960815",35.126269827247775,33.92089262960815
3,Restaurants,restaurants,47,4663,Rouge 21,rouge-21,https://newcyprusguide.com/business/rouge-21/,43,"//maps.google.com/maps?daddr=35.125392326045684,33.94259706495666",35.125392326045684,33.94259706495666
3,Restaurants,restaurants,47,4662,Lucky Cat Chinese Fast Food,lucky-cat-chinese-fast-food,https://newcyprusguide.com/business/lucky-cat-chinese-fast-food/,43,"//maps.google.com/maps?daddr=35.1258925028895,33.920914087280266",35.1258925028895,33.920914087280266
3,Restaurants,restaurants,47,4054,Kyrenia Tavern,kyrenia-tavern,https://newcyprusguide.com/business/kyrenia-tavern/,42,"//maps.google.com/maps?daddr=35.33783926783117,33.321676406845086",35.33783926783117,33.321676406845086
3,Restaurants,restaurants,47,4312,Livadya Cafe,livadya-cafe,https://newcyprusguide.com/business/livadya-cafe/,46,"//maps.google.com/maps?daddr=35.367026657297664,34.02387068031692",35.367026657297664,34.02387068031692
3,Restaurants,restaurants,47,4216,Sea Front Beach Restaurant,sea-front-beach-restaurant,https://newcyprusguide.com/business/sea-front-beach-restaurant/,73,"//maps.google.com/maps?daddr=35.618075035035204,34.466775808319085",35.618075035035204,34.466775808319085
3,Restaurants,restaurants,47,4227,Ocean House,ocean-house,https://newcyprusguide.com/business/ocean-house/,43,"//maps.google.com/maps?daddr=35.16191470428209,33.90179530142211",35.16191470428209,33.90179530142211
3,Restaurants,restaurants,47,4051,Glaro Garden,glaro-garden,https://newcyprusguide.com/business/glaro-garden/,73,"//maps.google.com/maps?daddr=35.60635227298505,34.381851706489556",35.60635227298505,34.381851706489556
3,Restaurants,restaurants,47,4053,Deks Restaurant &amp; Bar,deks-restaurant-bar,https://newcyprusguide.com/business/deks-restaurant-bar/,73,"//maps.google.com/maps?daddr=35.57000428582313,34.25685540197753",35.57000428582313,34.25685540197753
3,Restaurants,restaurants,47,4024,Komagene Çiğ Köfte Nicosia,komagene-cig-kofte-nicosia,https://newcyprusguide.com/business/komagene-cig-kofte-nicosia/,45,"//maps.google.com/maps?daddr=35.1878336256801,33.35031971691512",35.1878336256801,33.35031971691512
3,Restaurants,restaurants,47,4052,The Oasis Hotel,the-oasis-hotel,https://newcyprusguide.com/business/the-oasis-hotel/,73,"//maps.google.com/maps?daddr=35.630371621767566,34.37384263037109",35.630371621767566,34.37384263037109
3,Restaurants,restaurants,47,3967,Sevinç Garden,sevinc-garden,https://newcyprusguide.com/business/sevinc-garden/,62,"//maps.google.com/maps?daddr=35.35151328262433,33.137934360488885",35.35151328262433,33.137934360488885
3,Restaurants,restaurants,47,3933,Villagio Templos,villagio-templos,https://newcyprusguide.com/business/villagio-templos/,37,"//maps.google.com/maps?daddr=35.33358563039448,33.294757757171624",35.33358563039448,33.294757757171624
3,Restaurants,restaurants,47,3099,Buffavento Restaurant,buffavento-restaurant,https://newcyprusguide.com/business/buffavento-restaurant/,37,"//maps.google.com/maps?daddr=35.28082543309984,33.466762456878655",35.28082543309984,33.466762456878655
3,Restaurants,restaurants,47,2940,Zehra&#8217;s Garden,zehras-restaurant,https://newcyprusguide.com/business/zehras-restaurant/,40,"//maps.google.com/maps?daddr=35.32047321597896,33.36332574842834",35.32047321597896,33.36332574842834
3,Restaurants,restaurants,47,3350,Misty Fish,misty-fish,https://newcyprusguide.com/business/misty-fish/,42,"//maps.google.com/maps?daddr=35.33886325822084,33.319916877731316",35.33886325822084,33.319916877731316
3,Restaurants,restaurants,47,3363,The House and Garden,the-house-and-garden,https://newcyprusguide.com/business/the-house-and-garden/,37,"//maps.google.com/maps?daddr=35.33841690503092,33.32061961649322",35.33841690503092,33.32061961649322
3,Restaurants,restaurants,47,3375,Benöz Restaurant,benoz-restaurant,https://newcyprusguide.com/business/benoz-restaurant/,66,"//maps.google.com/maps?daddr=35.32967313657958,33.46808210371398",35.32967313657958,33.46808210371398
3,Restaurants,restaurants,47,3281,Saint Tropez Restaurant,saint-tropez-restaurant,https://newcyprusguide.com/business/saint-tropez-restaurant/,39,"//maps.google.com/maps?daddr=35.34729099385814,33.22725728510284",35.34729099385814,33.22725728510284
3,Restaurants,restaurants,47,3171,Blue Garden Restaurant,blue-garden-restaurant,https://newcyprusguide.com/business/blue-garden-restaurant/,62,"//maps.google.com/maps?daddr=35.352217705173175,33.08881774900817",35.352217705173175,33.08881774900817
3,Restaurants,restaurants,47,3161,Kings Kebab Sports Bar,kings-kebab-sports-bar,https://newcyprusguide.com/business/kings-kebab-sports-bar/,39,"//maps.google.com/maps?daddr=35.347597281296686,33.20371285437011",35.347597281296686,33.20371285437011
3,Restaurants,restaurants,47,3174,Dostlar Restaurant &amp; Bar,dostlar-restaurant-bar,https://newcyprusguide.com/business/dostlar-restaurant-bar/,39,"//maps.google.com/maps?daddr=35.348212040436295,33.22464481352233",35.348212040436295,33.22464481352233
3,Restaurants,restaurants,47,2971,Remzi&#8217;s Restaurant,remzis-restaurant,https://newcyprusguide.com/business/remzis-restaurant/,63,"//maps.google.com/maps?daddr=35.3406573981301,33.58082607744598",35.3406573981301,33.58082607744598
3,Restaurants,restaurants,47,2994,Antique Restaurant,zuegma-restaurant,https://newcyprusguide.com/business/zuegma-restaurant/,63,"//maps.google.com/maps?daddr=35.351508907309814,33.59203771112823",35.351508907309814,33.59203771112823
3,Restaurants,restaurants,47,2809,Spice Garden Restaurant &amp; Bar,spice-garden-restaurant-bar,https://newcyprusguide.com/business/spice-garden-restaurant-bar/,63,"//maps.google.com/maps?daddr=35.355779101518586,33.652253303512566",35.355779101518586,33.652253303512566
3,Restaurants,restaurants,47,2777,The Kitchen Restaurant,the-kitchen-restaurant,https://newcyprusguide.com/business/the-kitchen-restaurant/,41;37,"//maps.google.com/maps?daddr=35.32829233991596,33.38018209098243",35.32829233991596,33.38018209098243
3,Restaurants,restaurants,47,2681,Stone Castle Restaurant,stone-castle-restaurant,https://newcyprusguide.com/business/stone-castle-restaurant/,63,"//maps.google.com/maps?daddr=35.352410217098914,33.58793393133544",35.352410217098914,33.58793393133544
3,Restaurants,restaurants,47,2540,The Veranda Restaurant &amp; Bar,the-veranda-restaurant-bar,https://newcyprusguide.com/business/the-veranda-restaurant-bar/,37;42,"//maps.google.com/maps?daddr=35.34431556973449,33.27812806127929",35.34431556973449,33.27812806127929
3,Restaurants,restaurants,47,2662,Coconut Bar &amp; Bistro,coconut-bar-bistro,https://newcyprusguide.com/business/coconut-bar-bistro/,63,"//maps.google.com/maps?daddr=35.35470282385092,33.638574037536614",35.35470282385092,33.638574037536614
3,Restaurants,restaurants,47,2543,Ela Bar @ Tolga&#8217;s Restaurant,ela-bar-tolgas-restaurant,https://newcyprusguide.com/business/ela-bar-tolgas-restaurant/,37;38,"//maps.google.com/maps?daddr=35.35170142092504,33.13102499006652",35.35170142092504,33.13102499006652
3,Restaurants,restaurants,47,1824,Al Shaheen &#8211; Indian Restaurant,al-shaheen-indian-restaurant,https://newcyprusguide.com/business/al-shaheen-indian-restaurant/,37;42,"//maps.google.com/maps?daddr=35.33192262484514,33.337184939369195",35.33192262484514,33.337184939369195
3,Restaurants,restaurants,47,2369,Tuncayin Yeri Restaurant,tuncayin-yeri-restaurant,https://newcyprusguide.com/business/tuncayin-yeri-restaurant/,63;37,"//maps.google.com/maps?daddr=35.34168135280725,33.541885766967766",35.34168135280725,33.541885766967766
3,Restaurants,restaurants,47,2485,Seafood Premium,seafood-premium,https://newcyprusguide.com/business/seafood-premium/,37;42,"//maps.google.com/maps?daddr=35.33192700122044,33.33047941683196",35.33192700122044,33.33047941683196
3,Restaurants,restaurants,47,2438,Cano&#8217;s Green Palace,canos-green-palace,https://newcyprusguide.com/business/canos-green-palace/,62;37,"//maps.google.com/maps?daddr=35.34813984476551,33.11535016058349",35.34813984476551,33.11535016058349
3,Restaurants,restaurants,47,2359,Blue Door,blue-door,https://newcyprusguide.com/business/blue-door/,39;37,"//maps.google.com/maps?daddr=35.34522571110034,33.202843818649285",35.34522571110034,33.202843818649285
3,Restaurants,restaurants,47,430,Eminem Restaurant,eminem-restaurant,https://newcyprusguide.com/business/eminem-restaurant/,41;37,"//maps.google.com/maps?daddr=35.323353227570436,33.38115707395934",35.323353227570436,33.38115707395934
3,Restaurants,restaurants,47,2187,Şirinyalı Restaurant,sirinyali-restaurant,https://newcyprusguide.com/business/sirinyali-restaurant/,62;37,"//maps.google.com/maps?daddr=35.363085160119226,33.11929837225341",35.363085160119226,33.11929837225341
3,Restaurants,restaurants,47,2121,Gardens of Babel,gardens-babel,https://newcyprusguide.com/business/gardens-babel/,37;38,"//maps.google.com/maps?daddr=35.343545442108564,33.180860433563225",35.343545442108564,33.180860433563225
3,Restaurants,restaurants,47,2275,Whiskey Joe&#8217;s Bar,whiskey-joes-bar,https://newcyprusguide.com/business/whiskey-joes-bar/,37;42,"//maps.google.com/maps?daddr=35.3410927992474,33.320059034809105",35.3410927992474,33.320059034809105
3,Restaurants,restaurants,47,1762,Zeenee Italian &amp; American Eatery,zeenee-italian-american-eatery,https://newcyprusguide.com/business/zeenee-italian-american-eatery/,37;42,"//maps.google.com/maps?daddr=35.32806256956097,33.309413347229",35.32806256956097,33.309413347229
3,Restaurants,restaurants,47,1730,The Stone Cavern,stone-cavern,https://newcyprusguide.com/business/stone-cavern/,37;40,"//maps.google.com/maps?daddr=35.318354722521285,33.354635391220086",35.318354722521285,33.354635391220086
3,Restaurants,restaurants,47,1653,Nazende Ocakbaşi &amp; Restaurant,nazende-ocakbasi-restaurant,https://newcyprusguide.com/business/nazende-ocakbasi-restaurant/,37;42,"//maps.google.com/maps?daddr=35.33217645422071,33.3298732375946",35.33217645422071,33.3298732375946
3,Restaurants,restaurants,47,586,Levant Restaurant,levant-restaurant,https://newcyprusguide.com/business/levant-restaurant/,37,"//maps.google.com/maps?daddr=35.3176456276031,33.255790624603264",35.3176456276031,33.255790624603264
3,Restaurants,restaurants,47,570,Avanti Patisserie,avanti-patisserie,https://newcyprusguide.com/business/avanti-patisserie/,37;42,"//maps.google.com/maps?daddr=35.33389634605845,33.33061889170074",35.33389634605845,33.33061889170074
3,Restaurants,restaurants,47,503,Dağ Evi Meyhanesi,dag-evi-meyhanesi,https://newcyprusguide.com/business/dag-evi-meyhanesi/,37;38,"//maps.google.com/maps?daddr=35.33088104078495,33.17679420469665",35.33088104078495,33.17679420469665
3,Restaurants,restaurants,47,429,Grida Balık,grida-balik,https://newcyprusguide.com/business/grida-balik/,37;42,"//maps.google.com/maps?daddr=35.33016330278117,33.36425915716552",35.33016330278117,33.36425915716552
3,Restaurants,restaurants,47,450,Harbour Midpoint,harbour-midpoint,https://newcyprusguide.com/business/harbour-midpoint/,37;42,"//maps.google.com/maps?daddr=35.34229834487298,33.31935361383819",35.34229834487298,33.31935361383819
3,Restaurants,restaurants,47,387,Komagene Çiğ Köfte Kyrenia,komagene-cig-kofte-kyrenia,https://newcyprusguide.com/business/komagene-cig-kofte-kyrenia/,37;42,"//maps.google.com/maps?daddr=35.33662271537473,33.3092524146881",35.33662271537473,33.3092524146881
5,Cafes,cafes,47,18318,Café Paganini,cafe-paganini,https://newcyprusguide.com/business/cafe-paganini/,42,"//maps.google.com/maps?daddr=35.30692309207165,33.35555538891219",35.30692309207165,33.35555538891219
5,Cafes,cafes,47,17461,Vanilla Cake Store,vanilla-cake-store,https://newcyprusguide.com/business/vanilla-cake-store/,43,"//maps.google.com/maps?daddr=35.13137889021189,33.93058076856994",35.13137889021189,33.93058076856994
5,Cafes,cafes,47,17762,Açmenya Café &amp; Patisserie,acmenya-cafe-patisserie,https://newcyprusguide.com/business/acmenya-cafe-patisserie/,39,"//maps.google.com/maps?daddr=35.34445121645362,33.206735703929894",35.34445121645362,33.206735703929894
5,Cafes,cafes,47,16177,Çıtır Simit Evi,citir-simit-evi,https://newcyprusguide.com/business/citir-simit-evi/,39,"//maps.google.com/maps?daddr=35.3488858635848,33.221812400802605",35.3488858635848,33.221812400802605
5,Cafes,cafes,47,14912,Aroma Café,aroma-cafe,https://newcyprusguide.com/business/aroma-cafe/,41,"//maps.google.com/maps?daddr=35.32741155000834,33.38292867301368",35.32741155000834,33.38292867301368
5,Cafes,cafes,47,14324,Araf Café,araf-cafe,https://newcyprusguide.com/business/araf-cafe/,45,"//maps.google.com/maps?daddr=35.17671901161964,33.36445495842361",35.17671901161964,33.36445495842361
5,Cafes,cafes,47,14205,David People Cafe &#8211; Nicosia,david-people-nicosia,https://newcyprusguide.com/business/david-people-nicosia/,45,"//maps.google.com/maps?daddr=35.17691687380602,33.362437266692154",35.17691687380602,33.362437266692154
5,Cafes,cafes,47,6041,Zephyr Café,zephyr-cafe,https://newcyprusguide.com/business/zephyr-cafe/,45,"//maps.google.com/maps?daddr=35.193914232702596,33.320962939247124",35.193914232702596,33.320962939247124
5,Cafes,cafes,47,12941,Maçakızı Coffee House,macakizi-coffee-house,https://newcyprusguide.com/business/macakizi-coffee-house/,45,"//maps.google.com/maps?daddr=35.199643703315154,33.367408070549004",35.199643703315154,33.367408070549004
5,Cafes,cafes,47,12845,Rendo Coffee,rendo-coffee,https://newcyprusguide.com/business/rendo-coffee/,45,"//maps.google.com/maps?daddr=35.18233789110469,33.35630372522735",35.18233789110469,33.35630372522735
5,Cafes,cafes,47,12336,Delicious Cafe &amp; Restaurant,delicious-cafe,https://newcyprusguide.com/business/delicious-cafe/,45,"//maps.google.com/maps?daddr=35.18371240763925,33.352098021492",35.18371240763925,33.352098021492
5,Cafes,cafes,47,11985,Gazioğlu Baklava &amp; Ice-cream Café,gazioglu-gaziantep-baklava,https://newcyprusguide.com/business/gazioglu-gaziantep-baklava/,45,"//maps.google.com/maps?daddr=35.21783987290163,33.304105255588524",35.21783987290163,33.304105255588524
5,Cafes,cafes,47,11261,Hellim Cafe &amp; Restaurant,hellim-cafe-restaurant,https://newcyprusguide.com/business/hellim-cafe-restaurant/,42,"//maps.google.com/maps?daddr=35.34154570143759,33.317575309261315",35.34154570143759,33.317575309261315
5,Cafes,cafes,47,2538,Food Lodge Bakery,food-lodge,https://newcyprusguide.com/business/food-lodge/,41;37,"//maps.google.com/maps?daddr=35.32680648007649,33.388887200340264",35.32680648007649,33.388887200340264
5,Cafes,cafes,47,10356,Zarif&#8217;s Corner,zarifs-corner,https://newcyprusguide.com/business/zarifs-corner/,42,"//maps.google.com/maps?daddr=35.338276872149386,33.31320599077594",35.338276872149386,33.31320599077594
5,Cafes,cafes,47,9859,Mardo Ice Cream &#8211; Çatalköy,mardo-catalkoy,https://newcyprusguide.com/business/mardo-catalkoy/,41,"//maps.google.com/maps?daddr=35.32765116957953,33.381092700942986",35.32765116957953,33.381092700942986
5,Cafes,cafes,47,9814,Cafe Grumpy,cafe-grumpy,https://newcyprusguide.com/business/cafe-grumpy/,37,"//maps.google.com/maps?daddr=35.323891577019545,33.34487751482391",35.323891577019545,33.34487751482391
5,Cafes,cafes,47,8900,Gara Sandık Coffee &amp; Gift Shop,gara-sandik-coffee-gift-shop,https://newcyprusguide.com/business/gara-sandik-coffee-gift-shop/,45,"//maps.google.com/maps?daddr=35.183381385846076,33.35141942261123",35.183381385846076,33.35141942261123
5,Cafes,cafes,47,8397,Mug &amp; Bean Cafe,mug-bean-cafe,https://newcyprusguide.com/business/mug-bean-cafe/,44,"//maps.google.com/maps?daddr=35.13285078490001,32.828447673305504",35.13285078490001,32.828447673305504
5,Cafes,cafes,47,7977,West Cafe &amp; Bar,gloria-jeans-lefke,https://newcyprusguide.com/business/gloria-jeans-lefke/,44,"//maps.google.com/maps?daddr=35.1402032791319,32.82963052748107",35.1402032791319,32.82963052748107
5,Cafes,cafes,47,8086,Eat &amp; Meet,eat-meet,https://newcyprusguide.com/business/eat-meet/,45,"//maps.google.com/maps?daddr=35.21128770548669,33.376094404443734",35.21128770548669,33.376094404443734
5,Cafes,cafes,47,7878,Mey-Han Café &amp; Restaurant,mey-han-cafe-restaurant,https://newcyprusguide.com/business/mey-han-cafe-restaurant/,45,"//maps.google.com/maps?daddr=35.17613583605868,33.362129483207696",35.17613583605868,33.362129483207696
5,Cafes,cafes,47,7834,Budak Patisserie,budak-patisserie,https://newcyprusguide.com/business/budak-patisserie/,45,"//maps.google.com/maps?daddr=35.18148291694064,33.36609915254974",35.18148291694064,33.36609915254974
5,Cafes,cafes,47,7577,Mado Café,mado-cafe,https://newcyprusguide.com/business/mado-cafe/,45,"//maps.google.com/maps?daddr=35.182153743583136,33.355769965633385",35.182153743583136,33.355769965633385
5,Cafes,cafes,47,6085,Mekhan Cafe &amp; Restaurant,mekhan-cafe-restaurant,https://newcyprusguide.com/business/mekhan-cafe-restaurant/,45,"//maps.google.com/maps?daddr=35.17697332747176,33.36259082315826",35.17697332747176,33.36259082315826
5,Cafes,cafes,47,6875,Sapqa Café,sapqa-cafe,https://newcyprusguide.com/business/sapqa-cafe/,37,"//maps.google.com/maps?daddr=35.338983598119654,33.30090538023376",35.338983598119654,33.30090538023376
5,Cafes,cafes,47,6797,Roberts Coffee &#8211; Lefke,roberts-coffee-lefke,https://newcyprusguide.com/business/roberts-coffee-lefke/,44,"//maps.google.com/maps?daddr=35.13649640650304,32.82916918753051",35.13649640650304,32.82916918753051
5,Cafes,cafes,47,6573,Cafe No 3,cafe-no-3,https://newcyprusguide.com/business/cafe-no-3/,45,"//maps.google.com/maps?daddr=35.176304650467216,33.361005637630456",35.176304650467216,33.361005637630456
5,Cafes,cafes,47,3622,Oak Tree Park,oak-tree-park,https://newcyprusguide.com/business/oak-tree-park/,39,"//maps.google.com/maps?daddr=35.343191005904956,33.224585804924004",35.343191005904956,33.224585804924004
5,Cafes,cafes,47,5834,Cafés Cafe,cafes-cafe,https://newcyprusguide.com/business/cafes-cafe/,45,"//maps.google.com/maps?daddr=35.201901187860436,33.36281076429748",35.201901187860436,33.36281076429748
5,Cafes,cafes,47,5911,Lavonne Patisserie,lavonne-patisserie,https://newcyprusguide.com/business/lavonne-patisserie/,43,"//maps.google.com/maps?daddr=35.12321608226787,33.93022403477096",35.12321608226787,33.93022403477096
5,Cafes,cafes,47,5457,Costa Coffee Famagusta,costa-coffee-famagusta,https://newcyprusguide.com/business/costa-coffee-famagusta/,43,"//maps.google.com/maps?daddr=35.13350007722888,33.923708949073784",35.13350007722888,33.923708949073784
5,Cafes,cafes,47,5223,Muhabbet Café,muhabbet-cafe,https://newcyprusguide.com/business/muhabbet-cafe/,43,"//maps.google.com/maps?daddr=35.14298222618661,33.914597485050194",35.14298222618661,33.914597485050194
5,Cafes,cafes,47,5080,David People Cafe &#8211; Famagusta,david-people,https://newcyprusguide.com/business/david-people/,43,"//maps.google.com/maps?daddr=35.13337723853669,33.923835012897484",35.13337723853669,33.923835012897484
5,Cafes,cafes,47,4964,Betty Moon Patisserie &amp; Café,betty-moon-patisserie,https://newcyprusguide.com/business/betty-moon-patisserie/,39,"//maps.google.com/maps?daddr=35.34737850467342,33.21142152307891",35.34737850467342,33.21142152307891
5,Cafes,cafes,47,4567,Esentepe Beach Café,esentepe-halk-beach,https://newcyprusguide.com/business/esentepe-halk-beach/,63,"//maps.google.com/maps?daddr=35.35343402281275,33.59572306631469",35.35343402281275,33.59572306631469
5,Cafes,cafes,47,4749,Lungo Café,lungo-cafe,https://newcyprusguide.com/business/lungo-cafe/,45,"//maps.google.com/maps?daddr=35.209661634212736,33.3144934511032",35.209661634212736,33.3144934511032
5,Cafes,cafes,47,4663,Rouge 21,rouge-21,https://newcyprusguide.com/business/rouge-21/,43,"//maps.google.com/maps?daddr=35.125392326045684,33.94259706495666",35.125392326045684,33.94259706495666
5,Cafes,cafes,47,4492,Deks Thalassa,deks-thalassa,https://newcyprusguide.com/business/deks-thalassa/,74,"//maps.google.com/maps?daddr=35.328272645339716,34.059788141235344",35.328272645339716,34.059788141235344
5,Cafes,cafes,47,3950,Olive Boutique and Café,olive-boutique-and-cafe,https://newcyprusguide.com/business/olive-boutique-and-cafe/,45,"//maps.google.com/maps?daddr=35.194413988383566,33.319949064239495",35.194413988383566,33.319949064239495
5,Cafes,cafes,47,4398,Kumda Kahve Café,kumda-kahve-cafe,https://newcyprusguide.com/business/kumda-kahve-cafe/,45,"//maps.google.com/maps?daddr=35.177043483428804,33.3636073803749",35.177043483428804,33.3636073803749
5,Cafes,cafes,47,3180,Deli Café,deli-cafe,https://newcyprusguide.com/business/deli-cafe/,39,"//maps.google.com/maps?daddr=35.347098469731,33.20055321215057",35.347098469731,33.20055321215057
5,Cafes,cafes,47,2323,Bake Shop &#8211; Delicatessen,bake-shop-delicatessen,https://newcyprusguide.com/business/bake-shop-delicatessen/,39;37,"//maps.google.com/maps?daddr=35.347479141993674,33.206083927139275",35.347479141993674,33.206083927139275
5,Cafes,cafes,47,2121,Gardens of Babel,gardens-babel,https://newcyprusguide.com/business/gardens-babel/,37;38,"//maps.google.com/maps?daddr=35.343545442108564,33.180860433563225",35.343545442108564,33.180860433563225
5,Cafes,cafes,47,1728,Upper Crust British Bakery,upper-crust-british-bakery,https://newcyprusguide.com/business/upper-crust-british-bakery/,37;42,"//maps.google.com/maps?daddr=35.33144997491827,33.339443359359734",35.33144997491827,33.339443359359734
5,Cafes,cafes,47,1762,Zeenee Italian &amp; American Eatery,zeenee-italian-american-eatery,https://newcyprusguide.com/business/zeenee-italian-american-eatery/,37;42,"//maps.google.com/maps?daddr=35.32806256956097,33.309413347229",35.32806256956097,33.309413347229
5,Cafes,cafes,47,570,Avanti Patisserie,avanti-patisserie,https://newcyprusguide.com/business/avanti-patisserie/,37;42,"//maps.google.com/maps?daddr=35.33389634605845,33.33061889170074",35.33389634605845,33.33061889170074
5,Cafes,cafes,47,450,Harbour Midpoint,harbour-midpoint,https://newcyprusguide.com/business/harbour-midpoint/,37;42,"//maps.google.com/maps?daddr=35.34229834487298,33.31935361383819",35.34229834487298,33.31935361383819
5,Cafes,cafes,47,399,Palmi Börek Sarayı,palmi-borek-sarayi,https://newcyprusguide.com/business/palmi-borek-sarayi/,37;42,"//maps.google.com/maps?daddr=35.33774299456308,33.31898346899413",35.33774299456308,33.31898346899413
6,Bars,bars,47,19329,Mystique Shisha Lounge,mystique-shisha-lounge,https://newcyprusguide.com/business/mystique-shisha-lounge/,37,"//maps.google.com/maps?daddr=35.338815122211145,33.33381608484648",35.338815122211145,33.33381608484648
6,Bars,bars,47,19287,Sky Lounge &amp; Bar,sky-lounge-bar,https://newcyprusguide.com/business/sky-lounge-bar/,37,"//maps.google.com/maps?daddr=35.338346888620606,33.3325769042816",35.338346888620606,33.3325769042816
6,Bars,bars,47,17810,Parea Restaurant &amp; Bar,parea-restaurant-bar,https://newcyprusguide.com/business/parea-restaurant-bar/,37,"//maps.google.com/maps?daddr=35.336097579159066,33.322223577484124",35.336097579159066,33.322223577484124
6,Bars,bars,47,17011,"Limos Breakfast, Café &amp; Bar",limos,https://newcyprusguide.com/business/limos/,42,"//maps.google.com/maps?daddr=35.339952874769615,33.32263663767242",35.339952874769615,33.32263663767242
6,Bars,bars,47,15963,Pub Olea,pub-olea,https://newcyprusguide.com/business/pub-olea/,45,"//maps.google.com/maps?daddr=35.18998942739648,33.34981233334088",35.18998942739648,33.34981233334088
6,Bars,bars,47,14809,The Quota Bar,the-quota-bar,https://newcyprusguide.com/business/the-quota-bar/,45,"//maps.google.com/maps?daddr=35.182078111444625,33.357938531621926",35.182078111444625,33.357938531621926
6,Bars,bars,47,14654,Tango Cafe by Colorido,tango-cafe,https://newcyprusguide.com/business/tango-cafe/,45,"//maps.google.com/maps?daddr=35.17613145126419,33.36596772430801",35.17613145126419,33.36596772430801
6,Bars,bars,47,14324,Araf Café,araf-cafe,https://newcyprusguide.com/business/araf-cafe/,45,"//maps.google.com/maps?daddr=35.17671901161964,33.36445495842361",35.17671901161964,33.36445495842361
6,Bars,bars,47,11322,Batya Bilardo Bar,batya-bilardo-bar,https://newcyprusguide.com/business/batya-bilardo-bar/,42,"//maps.google.com/maps?daddr=35.339825972393385,33.31900492666625",35.339825972393385,33.31900492666625
6,Bars,bars,47,10731,Binny&#8217;s Bar &amp; Restaurant,binnys-restaurant,https://newcyprusguide.com/business/binnys-restaurant/,63,"//maps.google.com/maps?daddr=35.35250647288958,33.60346392153167",35.35250647288958,33.60346392153167
6,Bars,bars,47,3426,Ozzie&#8217;s Place,ozzies-place,https://newcyprusguide.com/business/ozzies-place/,38,"//maps.google.com/maps?daddr=35.349863772246806,33.15299764631652",35.349863772246806,33.15299764631652
6,Bars,bars,47,2823,SeaBreeze Restaurant &amp; Bar,seabreeze-restaurant-bar,https://newcyprusguide.com/business/seabreeze-restaurant-bar/,63,"//maps.google.com/maps?daddr=35.36243770377928,33.66709128378295",35.36243770377928,33.66709128378295
6,Bars,bars,47,3018,The Fez Restaurant,the-fez,https://newcyprusguide.com/business/the-fez/,41,"//maps.google.com/maps?daddr=35.32671457032361,33.38191882131957",35.32671457032361,33.38191882131957
6,Bars,bars,47,12276,George Café,george-cafe,https://newcyprusguide.com/business/george-cafe/,42,"//maps.google.com/maps?daddr=35.34046267023791,33.32007781027221",35.34046267023791,33.32007781027221
6,Bars,bars,47,9227,Gillham&#8217;s Wine Bar,gillhams-wine-bar,https://newcyprusguide.com/business/gillhams-wine-bar/,37,"//maps.google.com/maps?daddr=35.324053518835456,33.22011724470519",35.324053518835456,33.22011724470519
6,Bars,bars,47,2162,Alvadar Bar,alvadar-bar,https://newcyprusguide.com/business/alvadar-bar/,37;38,"//maps.google.com/maps?daddr=35.35030131143863,33.17551210878753",35.35030131143863,33.17551210878753
6,Bars,bars,47,8969,Barasta Cafe Bar,barasta-bar,https://newcyprusguide.com/business/barasta-bar/,45,"//maps.google.com/maps?daddr=35.17562062108629,33.36197123287582",35.17562062108629,33.36197123287582
6,Bars,bars,47,8531,Passage no 199,passage-no-199,https://newcyprusguide.com/business/passage-no-199/,43,"//maps.google.com/maps?daddr=35.142897784441914,33.91472086666499",35.142897784441914,33.91472086666499
6,Bars,bars,47,7503,Barricade Lounge &amp; Bar,barricade-bar,https://newcyprusguide.com/business/barricade-bar/,45,"//maps.google.com/maps?daddr=35.17552634735496,33.361386510792045",35.17552634735496,33.361386510792045
6,Bars,bars,47,8337,Sunny&#8217;s Bar &amp; Grill,sunnys-bar-grill,https://newcyprusguide.com/business/sunnys-bar-grill/,38,"//maps.google.com/maps?daddr=35.350349440606614,33.17317858692604",35.350349440606614,33.17317858692604
6,Bars,bars,47,8197,Karma Pub,karma-pub,https://newcyprusguide.com/business/karma-pub/,45,"//maps.google.com/maps?daddr=35.18278072034154,33.35287854431522",35.18278072034154,33.35287854431522
6,Bars,bars,47,8087,Jolly Joker Café &amp; Bar,jolly-jokers,https://newcyprusguide.com/business/jolly-jokers/,68,"//maps.google.com/maps?daddr=35.33669273327899,33.276534829124444",35.33669273327899,33.276534829124444
6,Bars,bars,47,7912,Papa Bar,papa-bar,https://newcyprusguide.com/business/papa-bar/,45,"//maps.google.com/maps?daddr=35.175603081795565,33.36570486782455",35.175603081795565,33.36570486782455
6,Bars,bars,47,7487,Road House Bar,road-house-bar,https://newcyprusguide.com/business/road-house-bar/,39,"//maps.google.com/maps?daddr=35.34827110957339,33.19564476965331",35.34827110957339,33.19564476965331
6,Bars,bars,47,7293,Sevinç Café &amp; Bar,sevinc-cafe-bar,https://newcyprusguide.com/business/sevinc-cafe-bar/,45,"//maps.google.com/maps?daddr=35.18230719988021,33.35429206846618",35.18230719988021,33.35429206846618
6,Bars,bars,47,6558,Imagine Cafe and Bar,imagine-cafe-and-bar,https://newcyprusguide.com/business/imagine-cafe-and-bar/,45,"//maps.google.com/maps?daddr=35.175182137686605,33.362014148220055",35.175182137686605,33.362014148220055
6,Bars,bars,47,6231,Barcode Pub,barcode-pub,https://newcyprusguide.com/business/barcode-pub/,43,"//maps.google.com/maps?daddr=35.14089637977956,33.915675733074174",35.14089637977956,33.915675733074174
6,Bars,bars,47,5743,Sherman&#8217;s Bar,shermans-bar,https://newcyprusguide.com/business/shermans-bar/,46,"//maps.google.com/maps?daddr=35.31566191547766,33.953469104736314",35.31566191547766,33.953469104736314
6,Bars,bars,47,4778,Hilltop Restaurant &amp; Bar,hilltop-restaurant-bar,https://newcyprusguide.com/business/hilltop-restaurant-bar/,46,"//maps.google.com/maps?daddr=35.32819386698666,33.954903039916985",35.32819386698666,33.954903039916985
6,Bars,bars,47,4706,Republic Bar &amp; Restaurant,republic-bar-restaurant,https://newcyprusguide.com/business/republic-bar-restaurant/,43,"//maps.google.com/maps?daddr=35.126269827247775,33.92089262960815",35.126269827247775,33.92089262960815
6,Bars,bars,47,4663,Rouge 21,rouge-21,https://newcyprusguide.com/business/rouge-21/,43,"//maps.google.com/maps?daddr=35.125392326045684,33.94259706495666",35.125392326045684,33.94259706495666
6,Bars,bars,47,3788,Bomond Bar,bomond-bar,https://newcyprusguide.com/business/bomond-bar/,42,"//maps.google.com/maps?daddr=35.33081320606343,33.33423987387084",35.33081320606343,33.33423987387084
6,Bars,bars,47,4492,Deks Thalassa,deks-thalassa,https://newcyprusguide.com/business/deks-thalassa/,74,"//maps.google.com/maps?daddr=35.328272645339716,34.059788141235344",35.328272645339716,34.059788141235344
6,Bars,bars,47,4174,Biiz Café,cafe-biiz,https://newcyprusguide.com/business/cafe-biiz/,45,"//maps.google.com/maps?daddr=35.1831731264112,33.35157767294311",35.1831731264112,33.35157767294311
6,Bars,bars,47,4053,Deks Restaurant &amp; Bar,deks-restaurant-bar,https://newcyprusguide.com/business/deks-restaurant-bar/,73,"//maps.google.com/maps?daddr=35.57000428582313,34.25685540197753",35.57000428582313,34.25685540197753
6,Bars,bars,47,3913,Groggy Lounge,groggy-lounge,https://newcyprusguide.com/business/groggy-lounge/,42,"//maps.google.com/maps?daddr=35.33347622318619,33.33274320124053",35.33347622318619,33.33274320124053
6,Bars,bars,47,3596,Montenegro &#8216;C Sports Bar,montenegro-c-sports-bar,https://newcyprusguide.com/business/montenegro-c-sports-bar/,62,"//maps.google.com/maps?daddr=35.346345871013185,33.134941015228264",35.346345871013185,33.134941015228264
6,Bars,bars,47,3706,Roots Bar,roots-bar,https://newcyprusguide.com/business/roots-bar/,72,"//maps.google.com/maps?daddr=35.35965533230094,33.65831509588622",35.35965533230094,33.65831509588622
6,Bars,bars,47,3511,Habana Bar,habana-bar,https://newcyprusguide.com/business/habana-bar/,39,"//maps.google.com/maps?daddr=35.34133128429201,33.24274435995483",35.34133128429201,33.24274435995483
6,Bars,bars,47,3394,Losers Club,losers-club,https://newcyprusguide.com/business/losers-club/,42,"//maps.google.com/maps?daddr=35.338712286094314,33.321786377414696",35.338712286094314,33.321786377414696
6,Bars,bars,47,3161,Kings Kebab Sports Bar,kings-kebab-sports-bar,https://newcyprusguide.com/business/kings-kebab-sports-bar/,39,"//maps.google.com/maps?daddr=35.347597281296686,33.20371285437011",35.347597281296686,33.20371285437011
6,Bars,bars,47,3174,Dostlar Restaurant &amp; Bar,dostlar-restaurant-bar,https://newcyprusguide.com/business/dostlar-restaurant-bar/,39,"//maps.google.com/maps?daddr=35.348212040436295,33.22464481352233",35.348212040436295,33.22464481352233
6,Bars,bars,47,2859,Cineworld Movie Pub,cineworld-movie-pub,https://newcyprusguide.com/business/cineworld-movie-pub/,39,"//maps.google.com/maps?daddr=35.348417688356726,33.222222778781884",35.348417688356726,33.222222778781884
6,Bars,bars,47,2809,Spice Garden Restaurant &amp; Bar,spice-garden-restaurant-bar,https://newcyprusguide.com/business/spice-garden-restaurant-bar/,63,"//maps.google.com/maps?daddr=35.355779101518586,33.652253303512566",35.355779101518586,33.652253303512566
6,Bars,bars,47,2543,Ela Bar @ Tolga&#8217;s Restaurant,ela-bar-tolgas-restaurant,https://newcyprusguide.com/business/ela-bar-tolgas-restaurant/,37;38,"//maps.google.com/maps?daddr=35.35170142092504,33.13102499006652",35.35170142092504,33.13102499006652
6,Bars,bars,47,2359,Blue Door,blue-door,https://newcyprusguide.com/business/blue-door/,39;37,"//maps.google.com/maps?daddr=35.34522571110034,33.202843818649285",35.34522571110034,33.202843818649285
6,Bars,bars,47,2295,Melly&#8217;s Bar,mellys-bar,https://newcyprusguide.com/business/mellys-bar/,37;42,"//maps.google.com/maps?daddr=35.32782623365733,33.33796277998351",35.32782623365733,33.33796277998351
6,Bars,bars,47,2275,Whiskey Joe&#8217;s Bar,whiskey-joes-bar,https://newcyprusguide.com/business/whiskey-joes-bar/,37;42,"//maps.google.com/maps?daddr=35.3410927992474,33.320059034809105",35.3410927992474,33.320059034809105
6,Bars,bars,47,2110,Cafe des Artistes,cafe-des-artistes,https://newcyprusguide.com/business/cafe-des-artistes/,39;37,"//maps.google.com/maps?daddr=35.34879616667187,33.1890143489685",35.34879616667187,33.1890143489685
6,Bars,bars,47,2101,The Olive Press,the-olive-press,https://newcyprusguide.com/business/the-olive-press/,37;38,"//maps.google.com/maps?daddr=35.35173642335125,33.14855590818786",35.35173642335125,33.14855590818786
6,Bars,bars,47,1730,The Stone Cavern,stone-cavern,https://newcyprusguide.com/business/stone-cavern/,37;40,"//maps.google.com/maps?daddr=35.318354722521285,33.354635391220086",35.318354722521285,33.354635391220086
7,See &amp; Do,see-do,0,15825,Les Ambassadeurs &#8211; Marina,les-ambassadeurs-marina,https://newcyprusguide.com/business/les-ambassadeurs-marina/,42,"//maps.google.com/maps?daddr=35.34256526905837,33.30409184454345",35.34256526905837,33.30409184454345
7,See &amp; Do,see-do,0,5062,Dipkarpaz City Hall,dipkarpaz-city-hall,https://newcyprusguide.com/business/dipkarpaz-city-hall/,73,"//maps.google.com/maps?daddr=35.5990879213928,34.38148692606353",35.5990879213928,34.38148692606353
8,Attractions,attractions,7,19573,Basilica of Agia Triada,basilica-of-agia-triada,https://newcyprusguide.com/business/basilica-of-agia-triada/,73,"//maps.google.com/maps?daddr=35.544648650401406,34.22522679327391",35.544648650401406,34.22522679327391
8,Attractions,attractions,7,18785,Salamis Royal Tombs,salamis-royal-tombs,https://newcyprusguide.com/business/salamis-royal-tombs/,46,"//maps.google.com/maps?daddr=35.176157760027756,33.891302499755845",35.176157760027756,33.891302499755845
8,Attractions,attractions,7,13483,Cyprus in Miniature,cyprus-in-miniature,https://newcyprusguide.com/business/cyprus-in-miniature/,71,"//maps.google.com/maps?daddr=35.40205858692214,33.81422117708587",35.40205858692214,33.81422117708587
8,Attractions,attractions,7,1844,St. Hilarion Castle,st-hilarion-castle,https://newcyprusguide.com/business/st-hilarion-castle/,37,"//maps.google.com/maps?daddr=35.31127224853562,33.280960473999016",35.31127224853562,33.280960473999016
8,Attractions,attractions,7,14389,Enkomi Ruins,enkomi-ruins,https://newcyprusguide.com/business/enkomi-ruins/,43,"//maps.google.com/maps?daddr=35.16558972162347,33.87042418478393",35.16558972162347,33.87042418478393
8,Attractions,attractions,7,13473,Antiphonitis Monastery,antiphonitis-monastery,https://newcyprusguide.com/business/antiphonitis-monastery/,63,"//maps.google.com/maps?daddr=35.327355748088586,33.61911729334258",35.327355748088586,33.61911729334258
8,Attractions,attractions,7,16284,The Peace and Freedom Museum,peace-and-freedom-museum,https://newcyprusguide.com/business/peace-and-freedom-museum/,39,"//maps.google.com/maps?daddr=35.34449934910569,33.241564187988274",35.34449934910569,33.241564187988274
8,Attractions,attractions,7,14784,Kantara Castle,kantara-castle,https://newcyprusguide.com/business/kantara-castle/,71,"//maps.google.com/maps?daddr=35.407449791109954,33.922974023803704",35.407449791109954,33.922974023803704
8,Attractions,attractions,7,14759,Church of St. George of the Latins,church-george-latins,https://newcyprusguide.com/business/church-george-latins/,43,"//maps.google.com/maps?daddr=35.12672612413668,33.942929658874505",35.12672612413668,33.942929658874505
8,Attractions,attractions,7,14745,Church of Sts. Peter &amp; Paul,church-of-sts-peter-paul,https://newcyprusguide.com/business/church-of-sts-peter-paul/,43,"//maps.google.com/maps?daddr=35.12400146727226,33.94043252228164",35.12400146727226,33.94043252228164
8,Attractions,attractions,7,14753,Churches of St. Zoni &amp; St. Nikoloas,churches-st-zoni-nikoloas,https://newcyprusguide.com/business/churches-st-zoni-nikoloas/,43,"//maps.google.com/maps?daddr=35.12297037367199,33.94430294989013",35.12297037367199,33.94430294989013
8,Attractions,attractions,7,14735,Church of St. George of the Greeks,church-st-george-greeks,https://newcyprusguide.com/business/church-st-george-greeks/,43,"//maps.google.com/maps?daddr=35.12385667619301,33.94338295219802",35.12385667619301,33.94338295219802
8,Attractions,attractions,7,14722,Canbulat Museum,canbulat-museum,https://newcyprusguide.com/business/canbulat-museum/,43,"//maps.google.com/maps?daddr=35.1231985316786,33.94710317610168",35.1231985316786,33.94710317610168
8,Attractions,attractions,7,14540,The Round Tower,round-tower,https://newcyprusguide.com/business/round-tower/,42,"//maps.google.com/maps?daddr=35.340425474969166,33.3193375205841",35.340425474969166,33.3193375205841
8,Attractions,attractions,7,14606,Buffavento Castle,buffavento-castle,https://newcyprusguide.com/business/buffavento-castle/,37,"//maps.google.com/maps?daddr=35.28516504490812,33.41127023456954",35.28516504490812,33.41127023456954
8,Attractions,attractions,7,14531,Othello Castle,othello-castle,https://newcyprusguide.com/business/othello-castle/,43,"//maps.google.com/maps?daddr=35.12748953821486,33.94323006628417",35.12748953821486,33.94323006628417
8,Attractions,attractions,7,14550,Baldoken Ottoman Graveyard,baldoken-ottoman-graveyard,https://newcyprusguide.com/business/baldoken-ottoman-graveyard/,42,"//maps.google.com/maps?daddr=35.34012353627159,33.321099731906884",35.34012353627159,33.321099731906884
8,Attractions,attractions,7,14378,Bellapais Monastery,bellapais-monastery,https://newcyprusguide.com/business/bellapais-monastery/,37,"//maps.google.com/maps?daddr=35.30713978934752,33.35527912138366",35.30713978934752,33.35527912138366
8,Attractions,attractions,7,13918,Apostolos Andreas Monastery,apostolos-andreas-monastery,https://newcyprusguide.com/business/apostolos-andreas-monastery/,73,"//maps.google.com/maps?daddr=35.65940934747107,34.57429483889007",35.65940934747107,34.57429483889007
8,Attractions,attractions,7,13654,Dr. Fazıl Küçük Museum,dr-fazil-kucuk-museum,https://newcyprusguide.com/business/dr-fazil-kucuk-museum/,45,"//maps.google.com/maps?daddr=35.18019166968033,33.3615715837326",35.18019166968033,33.3615715837326
8,Attractions,attractions,7,1856,Salamis Ruins,salamis-ruins,https://newcyprusguide.com/business/salamis-ruins/,43,"//maps.google.com/maps?daddr=35.18541791577339,33.90113011358642",35.18541791577339,33.90113011358642
8,Attractions,attractions,7,13598,Kyrenia Gate,kyrenia-gate,https://newcyprusguide.com/business/kyrenia-gate/,45,"//maps.google.com/maps?daddr=35.181866560306155,33.36172178743743",35.181866560306155,33.36172178743743
8,Attractions,attractions,7,13589,Mevlevi Museum,mevlevi-museum,https://newcyprusguide.com/business/mevlevi-museum/,45,"//maps.google.com/maps?daddr=35.18071343250299,33.36186930893325",35.18071343250299,33.36186930893325
8,Attractions,attractions,7,12671,Museum of Nature and Archaeology,museum-nature-archaeology,https://newcyprusguide.com/business/museum-nature-archaeology/,44,"//maps.google.com/maps?daddr=35.200739577435705,32.990616712554925",35.200739577435705,32.990616712554925
8,Attractions,attractions,7,14559,Selimiye Mosque,selimiye-mosque,https://newcyprusguide.com/business/selimiye-mosque/,45,"//maps.google.com/maps?daddr=35.176504157952344,33.36421624182128",35.176504157952344,33.36421624182128
8,Attractions,attractions,7,1925,Monumental Olive Trees,monumental-olive-tree,https://newcyprusguide.com/business/monumental-olive-tree/,44,"//maps.google.com/maps?daddr=35.2545200454184,33.02784577368163",35.2545200454184,33.02784577368163
8,Attractions,attractions,7,1917,St. Barnabas Monastery,st-barnabas-monastery,https://newcyprusguide.com/business/st-barnabas-monastery/,43,"//maps.google.com/maps?daddr=35.1747546140949,33.88033762930297",35.1747546140949,33.88033762930297
8,Attractions,attractions,7,1912,Lala Mustafa Pasha Mosque,lala-mustafa-pasha-mosque,https://newcyprusguide.com/business/lala-mustafa-pasha-mosque/,43,"//maps.google.com/maps?daddr=35.12493602168426,33.94248441217803",35.12493602168426,33.94248441217803
8,Attractions,attractions,7,1895,Kyrenia Harbour,kyrenia-harbour,https://newcyprusguide.com/business/kyrenia-harbour/,37;42,"//maps.google.com/maps?daddr=35.34175136632832,33.31979886053466",35.34175136632832,33.31979886053466
8,Attractions,attractions,7,1886,Büyük Han,buyuk-han,https://newcyprusguide.com/business/buyuk-han/,45,"//maps.google.com/maps?daddr=35.17629807328903,33.36254254339599",35.17629807328903,33.36254254339599
8,Attractions,attractions,7,1874,The Old Town of Famagusta,old-town-famagusta,https://newcyprusguide.com/business/old-town-famagusta/,43,"//maps.google.com/maps?daddr=35.124821945194505,33.939196023925774",35.124821945194505,33.939196023925774
8,Attractions,attractions,7,1866,Kyrenia Castle,kyrenia-castle,https://newcyprusguide.com/business/kyrenia-castle/,37;42,"//maps.google.com/maps?daddr=35.34184763482069,33.32223430632018",35.34184763482069,33.32223430632018
8,Attractions,attractions,7,1834,St. Mamas Monastery,st-mamas-monastery,https://newcyprusguide.com/business/st-mamas-monastery/,44,"//maps.google.com/maps?daddr=35.200454651587044,32.99104586599731",35.200454651587044,32.99104586599731
8,Attractions,attractions,7,1825,Vouni Palace,vouni-palace,https://newcyprusguide.com/business/vouni-palace/,44,"//maps.google.com/maps?daddr=35.15854652346806,32.77292862890624",35.15854652346806,32.77292862890624
8,Attractions,attractions,7,1933,Ruins of Soli,ruins-of-soli,https://newcyprusguide.com/business/ruins-of-soli/,44,"//maps.google.com/maps?daddr=35.140720911819045,32.81326905249023",35.140720911819045,32.81326905249023
9,Activities,activities,7,18090,Lapta Coastal Walk,lapta-coastal-walk,https://newcyprusguide.com/business/lapta-coastal-walk/,38,"//maps.google.com/maps?daddr=35.351937687007464,33.16695854423904",35.351937687007464,33.16695854423904
9,Activities,activities,7,14951,Cyprus Underwater Explorers,cyprus-underwater-explorers,https://newcyprusguide.com/business/cyprus-underwater-explorers/,38,"//maps.google.com/maps?daddr=35.35117638271175,33.17418709753417",35.35117638271175,33.17418709753417
9,Activities,activities,7,14888,Velespeed,velespeed,https://newcyprusguide.com/business/velespeed/,45,"//maps.google.com/maps?daddr=35.19179242873598,33.35727468489074",35.19179242873598,33.35727468489074
9,Activities,activities,7,14489,Korinuem Golf Resort,korinuem-golf-resort,https://newcyprusguide.com/business/korinuem-golf-resort/,63,"//maps.google.com/maps?daddr=35.325287767423504,33.51610437391662",35.325287767423504,33.51610437391662
9,Activities,activities,7,14508,Korineum Tennis,korineum-tennis,https://newcyprusguide.com/business/korineum-tennis/,63,"//maps.google.com/maps?daddr=35.32799254417997,33.51636186598205",35.32799254417997,33.51636186598205
9,Activities,activities,7,14084,Paragliding Kyrenia,paragliding-kyrenia,https://newcyprusguide.com/business/paragliding-kyrenia/,37,"//maps.google.com/maps?daddr=35.34155882899948,33.320466060027115",35.34155882899948,33.320466060027115
9,Activities,activities,7,14095,Jeep Safari,jeep-safari,https://newcyprusguide.com/business/jeep-safari/,37,"//maps.google.com/maps?daddr=35.33245216453571,33.18956688402557",35.33245216453571,33.18956688402557
9,Activities,activities,7,14113,Flyboard Kyrenia,flyboard-kyrenia,https://newcyprusguide.com/business/flyboard-kyrenia/,37,"//maps.google.com/maps?daddr=35.33983472428779,33.333424482330315",35.33983472428779,33.333424482330315
9,Activities,activities,7,13618,Milli Park,milli-park,https://newcyprusguide.com/business/milli-park/,39,"//maps.google.com/maps?daddr=35.34444684075657,33.23575988768005",35.34444684075657,33.23575988768005
9,Activities,activities,7,9561,Shakki Boat Tours,shakki-boat-tours,https://newcyprusguide.com/business/shakki-boat-tours/,42,"//maps.google.com/maps?daddr=35.341637594325825,33.319981250747674",35.341637594325825,33.319981250747674
9,Activities,activities,7,9393,Soli Queen &amp; To Limani Boat Tours,soli-queen-boat-tours,https://newcyprusguide.com/business/soli-queen-boat-tours/,42,"//maps.google.com/maps?daddr=35.340403595391265,33.32353249548328",35.340403595391265,33.32353249548328
9,Activities,activities,7,9387,Sabrina Boat Tours,sabrina-boat-tours,https://newcyprusguide.com/business/sabrina-boat-tours/,42,"//maps.google.com/maps?daddr=35.34054362458718,33.323189172729485",35.34054362458718,33.323189172729485
9,Activities,activities,7,9381,Princes Boat Tours,princes-boat-tours,https://newcyprusguide.com/business/princes-boat-tours/,42,"//maps.google.com/maps?daddr=35.341103738943765,33.32336083410644",35.341103738943765,33.32336083410644
9,Activities,activities,7,9374,Happy Dolphin Boat Tours,happy-dolphin-boat-tours,https://newcyprusguide.com/business/happy-dolphin-boat-tours/,42,"//maps.google.com/maps?daddr=35.34152382216311,33.323704156860344",35.34152382216311,33.323704156860344
9,Activities,activities,7,9415,Scuba Cyprus Boat Tour,scuba-cyprus-boat-tour,https://newcyprusguide.com/business/scuba-cyprus-boat-tour/,42,"//maps.google.com/maps?daddr=35.341733862449814,33.322674188186625",35.341733862449814,33.322674188186625
9,Activities,activities,7,9266,Gillham&#8217;s Wine Culture,gillhams-wine-culture,https://newcyprusguide.com/business/gillhams-wine-culture/,37,"//maps.google.com/maps?daddr=35.32394847553242,33.22070733068847",35.32394847553242,33.22070733068847
9,Activities,activities,7,4050,Cemsa Go Karting,cemsa-go-karting,https://newcyprusguide.com/business/cemsa-go-karting/,45,"//maps.google.com/maps?daddr=35.220607402130945,33.32977667807006",35.220607402130945,33.32977667807006
12,Shopping,shopping,0,11352,Martina Cole’s Best Seller Book Store,bestseller-book-store,https://newcyprusguide.com/business/bestseller-book-store/,42,"//maps.google.com/maps?daddr=35.332972948120414,33.33319917677295",35.332972948120414,33.33319917677295
12,Shopping,shopping,0,19117,Genç Yapı Market,genc-yapi-market,https://newcyprusguide.com/business/genc-yapi-market/,68,"//maps.google.com/maps?daddr=35.340849937607004,33.287295851692186",35.340849937607004,33.287295851692186
12,Shopping,shopping,0,15044,Fanus Gift Shop,fanus-gift-shop,https://newcyprusguide.com/business/fanus-gift-shop/,42,"//maps.google.com/maps?daddr=35.34176121197474,33.318562362178795",35.34176121197474,33.318562362178795
12,Shopping,shopping,0,14970,Holiday Turkish Delight,holiday-turkish-delight,https://newcyprusguide.com/business/holiday-turkish-delight/,42,"//maps.google.com/maps?daddr=35.340215430777306,33.319466266616814",35.340215430777306,33.319466266616814
12,Shopping,shopping,0,10061,Shoptimum,shoptimum,https://newcyprusguide.com/business/shoptimum/,41,"//maps.google.com/maps?daddr=35.327613968414084,33.379979584201806",35.327613968414084,33.379979584201806
12,Shopping,shopping,0,9518,Art Bellapais,art-bellapais,https://newcyprusguide.com/business/art-bellapais/,37,"//maps.google.com/maps?daddr=35.306715149695435,33.35371002910995",35.306715149695435,33.35371002910995
12,Shopping,shopping,0,8926,Gara Sandık Gift Shop &#8211; Büyük Han,gara-sandik-gift-shop-buyuk-han,https://newcyprusguide.com/business/gara-sandik-gift-shop-buyuk-han/,45,"//maps.google.com/maps?daddr=35.17641975099922,33.36273700354957",35.17641975099922,33.36273700354957
12,Shopping,shopping,0,8900,Gara Sandık Coffee &amp; Gift Shop,gara-sandik-coffee-gift-shop,https://newcyprusguide.com/business/gara-sandik-coffee-gift-shop/,45,"//maps.google.com/maps?daddr=35.183381385846076,33.35141942261123",35.183381385846076,33.35141942261123
12,Shopping,shopping,0,8678,Decoclass Wedding Organization,decoclass-wedding-organization,https://newcyprusguide.com/business/decoclass-wedding-organization/,45,"//maps.google.com/maps?daddr=35.18625969579836,33.351169977172844",35.18625969579836,33.351169977172844
12,Shopping,shopping,0,5628,Noxcy Supplement Warehouse,noxcy-supplement-warehouse,https://newcyprusguide.com/business/noxcy-supplement-warehouse/,45,"//maps.google.com/maps?daddr=35.20661321069144,33.32747534273528",35.20661321069144,33.32747534273528
12,Shopping,shopping,0,8090,Edip Electronics,edip-electronics,https://newcyprusguide.com/business/edip-electronics/,45,"//maps.google.com/maps?daddr=35.21154191314652,33.37762996910476",35.21154191314652,33.37762996910476
12,Shopping,shopping,0,7371,Yarim Bridal Wedding Gallery,yarim-wedding,https://newcyprusguide.com/business/yarim-wedding/,45,"//maps.google.com/maps?daddr=35.20305839832921,33.36757704971694",35.20305839832921,33.36757704971694
12,Shopping,shopping,0,7373,Karlin&#8217;s Party City,karlins-party-city,https://newcyprusguide.com/business/karlins-party-city/,45,"//maps.google.com/maps?daddr=35.20254554572424,33.36777821539306",35.20254554572424,33.36777821539306
12,Shopping,shopping,0,7097,Cyprus Outdoor Shop &#8211; Nicosia,cyprus-outdoor-shop-nicosia,https://newcyprusguide.com/business/cyprus-outdoor-shop-nicosia/,45,"//maps.google.com/maps?daddr=35.19309883525474,33.34701255319976",35.19309883525474,33.34701255319976
12,Shopping,shopping,0,6469,Ateş Kuruyemiş Nuts &#8211; Famagusta,ates-kuruyemis-famagusta,https://newcyprusguide.com/business/ates-kuruyemis-famagusta/,43,"//maps.google.com/maps?daddr=35.13052557395467,33.92676130293273",35.13052557395467,33.92676130293273
12,Shopping,shopping,0,6483,Ateş Kuruyemiş Nuts &#8211; Nicosia,ates-kuruyemis-nuts-nicosia,https://newcyprusguide.com/business/ates-kuruyemis-nuts-nicosia/,45,"//maps.google.com/maps?daddr=35.1950255273367,33.36755559204482",35.1950255273367,33.36755559204482
12,Shopping,shopping,0,5912,Ortopedia Cyprus,ortopedia-cyprus,https://newcyprusguide.com/business/ortopedia-cyprus/,43,"//maps.google.com/maps?daddr=35.131316372486374,33.92597943900489",35.131316372486374,33.92597943900489
12,Shopping,shopping,0,4776,Nuran Bridal Designer &amp; Wedding Organizer,nuran-bridal-designer-wedding-organizer,https://newcyprusguide.com/business/nuran-bridal-designer-wedding-organizer/,43,"//maps.google.com/maps?daddr=35.123760148663564,33.934520933612816",35.123760148663564,33.934520933612816
12,Shopping,shopping,0,4630,Sega Marine Store,sega-marine-store,https://newcyprusguide.com/business/sega-marine-store/,42,"//maps.google.com/maps?daddr=35.32959435959141,33.31902101992034",35.32959435959141,33.31902101992034
12,Shopping,shopping,0,3950,Olive Boutique and Café,olive-boutique-and-cafe,https://newcyprusguide.com/business/olive-boutique-and-cafe/,45,"//maps.google.com/maps?daddr=35.194413988383566,33.319949064239495",35.194413988383566,33.319949064239495
12,Shopping,shopping,0,3889,Cyprus Outdoor Shop,cyprus-outdoor-shop,https://newcyprusguide.com/business/cyprus-outdoor-shop/,42,"//maps.google.com/maps?daddr=35.34011697237438,33.295809183105455",35.34011697237438,33.295809183105455
13,Fashion,fashion,12,14022,Armagan Collection,armagan-collection,https://newcyprusguide.com/business/armagan-collection/,42,"//maps.google.com/maps?daddr=35.34012572423731,33.319560143932335",35.34012572423731,33.319560143932335
13,Fashion,fashion,12,14037,Armagan Kids Collection,armagan-kids-collection,https://newcyprusguide.com/business/armagan-kids-collection/,42,"//maps.google.com/maps?daddr=35.34007321304569,33.3185985720005",35.34007321304569,33.3185985720005
13,Fashion,fashion,12,19545,Bayramoğlu Shoes,bayramoglu-shoes,https://newcyprusguide.com/business/bayramoglu-shoes/,37,"//maps.google.com/maps?daddr=35.33963452446595,33.315013799652085",35.33963452446595,33.315013799652085
13,Fashion,fashion,12,19425,Serena Store &#8211; Nicosia,serena-store-nicosia,https://newcyprusguide.com/business/serena-store-nicosia/,45,"//maps.google.com/maps?daddr=35.206746896652874,33.34180906771086",35.206746896652874,33.34180906771086
13,Fashion,fashion,12,19456,Pierre Cardin &#8211; Famagusta,pierre-cardin-famagusta,https://newcyprusguide.com/business/pierre-cardin-famagusta/,43,"//maps.google.com/maps?daddr=35.12586617786908,33.92082020996474",35.12586617786908,33.92082020996474
13,Fashion,fashion,12,19394,US Polo &#8211; Kyrenia &#8211; Cangar Plaza,us-polo-kyrenia-cangar,https://newcyprusguide.com/business/us-polo-kyrenia-cangar/,37,"//maps.google.com/maps?daddr=35.32816760751861,33.301758322700486",35.32816760751861,33.301758322700486
13,Fashion,fashion,12,19410,InStreet &#8211; Kyrenia,instreet-kyrenia,https://newcyprusguide.com/business/instreet-kyrenia/,37,"//maps.google.com/maps?daddr=35.32816268386735,33.30176569877528",35.32816268386735,33.30176569877528
13,Fashion,fashion,12,19472,AVVA &#8211; Famagusta &#8211; City Mall,avva-famagusta-city-mall,https://newcyprusguide.com/business/avva-famagusta-city-mall/,43,"//maps.google.com/maps?daddr=35.125879340380365,33.921005282386766",35.125879340380365,33.921005282386766
13,Fashion,fashion,12,19443,AVVA &#8211; Nicosia,avva-nicosia,https://newcyprusguide.com/business/avva-nicosia/,45,"//maps.google.com/maps?daddr=35.207275063626675,33.34343448637389",35.207275063626675,33.34343448637389
13,Fashion,fashion,12,19487,InStreet &#8211; Famagusta,instreet-famagusta,https://newcyprusguide.com/business/instreet-famagusta/,43,"//maps.google.com/maps?daddr=35.13750978134819,33.92015233992003",35.13750978134819,33.92015233992003
13,Fashion,fashion,12,19357,LC Waikiki &#8211; Kyrenia &#8211; Cangar Plaza,lc-waikiki-kyrenia-cangar,https://newcyprusguide.com/business/lc-waikiki-kyrenia-cangar/,37,"//maps.google.com/maps?daddr=35.3281955082031,33.30137677846812",35.3281955082031,33.30137677846812
13,Fashion,fashion,12,12353,Herry,herry,https://newcyprusguide.com/business/herry/,45,"//maps.google.com/maps?daddr=35.18976701871135,33.349903974517815",35.18976701871135,33.349903974517815
13,Fashion,fashion,12,17981,Lavita Boutique,lavita-boutique,https://newcyprusguide.com/business/lavita-boutique/,37,"//maps.google.com/maps?daddr=35.331236625087584,33.32177296636962",35.331236625087584,33.32177296636962
13,Fashion,fashion,12,17721,Twist &#8211; Famagusta,twist-famagusta,https://newcyprusguide.com/business/twist-famagusta/,43,"//maps.google.com/maps?daddr=35.126234727381124,33.92102674005889",35.126234727381124,33.92102674005889
13,Fashion,fashion,12,17709,Twist &#8211; Kyrenia,twist-kyrenia,https://newcyprusguide.com/business/twist-kyrenia/,42,"//maps.google.com/maps?daddr=35.332292427721754,33.317164931282036",35.332292427721754,33.317164931282036
13,Fashion,fashion,12,17696,Twist &#8211; Nicosia,twist-nicosia,https://newcyprusguide.com/business/twist-nicosia/,45,"//maps.google.com/maps?daddr=35.1887740232748,33.349777910694115",35.1887740232748,33.349777910694115
13,Fashion,fashion,12,17644,Ipekyol &#8211; Famagusta,ipekyol-famagusta,https://newcyprusguide.com/business/ipekyol-famagusta/,43,"//maps.google.com/maps?daddr=35.125958315403395,33.921288255437844",35.125958315403395,33.921288255437844
13,Fashion,fashion,12,17660,Ipekyol &#8211; Kyrenia,ipekyol-kyrenia,https://newcyprusguide.com/business/ipekyol-kyrenia/,42,"//maps.google.com/maps?daddr=35.33230665087558,33.31703082083129",35.33230665087558,33.31703082083129
13,Fashion,fashion,12,17678,Ipekyol &#8211; Nicosia,ipekyol-nicosia,https://newcyprusguide.com/business/ipekyol-nicosia/,45,"//maps.google.com/maps?daddr=35.18880032794607,33.34976449964904",35.18880032794607,33.34976449964904
13,Fashion,fashion,12,17574,Defacto &#8211; Nicosia,defacto-nicosia,https://newcyprusguide.com/business/defacto-nicosia/,45,"//maps.google.com/maps?daddr=35.18671346422608,33.35097954033279",35.18671346422608,33.35097954033279
13,Fashion,fashion,12,17620,Defacto &#8211; Famagusta,defacto-famagusta,https://newcyprusguide.com/business/defacto-famagusta/,43,"//maps.google.com/maps?daddr=35.13209400183339,33.9249910449829",35.13209400183339,33.9249910449829
13,Fashion,fashion,12,17599,Defacto &#8211; Kyrenia,defacto-kyrenia,https://newcyprusguide.com/business/defacto-kyrenia/,42,"//maps.google.com/maps?daddr=35.3386225778855,33.303096744998925",35.3386225778855,33.303096744998925
13,Fashion,fashion,12,17107,LC Waikiki &#8211; Kyrenia,lc-waikiki-kyrenia,https://newcyprusguide.com/business/lc-waikiki-kyrenia/,42,"//maps.google.com/maps?daddr=35.33555202917129,33.30908075331115",35.33555202917129,33.30908075331115
13,Fashion,fashion,12,17378,LC Waikiki &#8211; Nicosia &#8211; Metropol,lc-waikiki-nicosia-metropol,https://newcyprusguide.com/business/lc-waikiki-nicosia-metropol/,45,"//maps.google.com/maps?daddr=35.206433501347234,33.34192440269851",35.206433501347234,33.34192440269851
13,Fashion,fashion,12,17221,LC Waikiki &#8211; Famagusta &#8211; City Mall,lc-waikiki-famagusta-mall,https://newcyprusguide.com/business/lc-waikiki-famagusta-mall/,43,"//maps.google.com/maps?daddr=35.12586617786898,33.92089799402618",35.12586617786898,33.92089799402618
13,Fashion,fashion,12,17174,LC Waikiki &#8211; Nicosia City,lc-waikiki-nicosia-dereboyu,https://newcyprusguide.com/business/lc-waikiki-nicosia-dereboyu/,45,"//maps.google.com/maps?daddr=35.18689760141622,33.35094198940658",35.18689760141622,33.35094198940658
13,Fashion,fashion,12,17292,LC Waikiki &#8211; Famagusta City,lc-waikiki-famagusta,https://newcyprusguide.com/business/lc-waikiki-famagusta/,43,"//maps.google.com/maps?daddr=35.135667272248575,33.921828720554345",35.135667272248575,33.921828720554345
13,Fashion,fashion,12,17249,US Polo &#8211; Famagusta &#8211; City Mall,us-polo-famagusta-mall,https://newcyprusguide.com/business/us-polo-famagusta-mall/,43,"//maps.google.com/maps?daddr=35.125874952877055,33.92103210447692",35.125874952877055,33.92103210447692
13,Fashion,fashion,12,17405,US Polo &#8211; Famagusta City,us-polo-famagusta-city,https://newcyprusguide.com/business/us-polo-famagusta-city/,43,"//maps.google.com/maps?daddr=35.13536457033731,33.92209962366485",35.13536457033731,33.92209962366485
13,Fashion,fashion,12,17134,US Polo &#8211; Kyrenia,us-polo-kyrenia,https://newcyprusguide.com/business/us-polo-kyrenia/,42,"//maps.google.com/maps?daddr=35.33578358983326,33.30857783912086",35.33578358983326,33.30857783912086
13,Fashion,fashion,12,17200,US Polo &#8211; Nicosia Centre,us-polo-nicosia,https://newcyprusguide.com/business/us-polo-nicosia/,45,"//maps.google.com/maps?daddr=35.18298898078183,33.35186198709869",35.18298898078183,33.35186198709869
13,Fashion,fashion,12,15626,TrendZone,trendzone,https://newcyprusguide.com/business/trendzone/,42,"//maps.google.com/maps?daddr=35.329688454318344,33.32970962284469",35.329688454318344,33.32970962284469
13,Fashion,fashion,12,17834,Koton &#8211; Famagusta,koton-famagusta,https://newcyprusguide.com/business/koton-famagusta/,43,"//maps.google.com/maps?daddr=35.132797042566324,33.92431646941566",35.132797042566324,33.92431646941566
13,Fashion,fashion,12,16462,Koton &#8211; Nicosia,koton-nicosia,https://newcyprusguide.com/business/koton-nicosia/,45,"//maps.google.com/maps?daddr=35.18259438160023,33.35149184225463",35.18259438160023,33.35149184225463
13,Fashion,fashion,12,16612,Koton &#8211; Kyrenia,koton-kyrenia,https://newcyprusguide.com/business/koton-kyrenia/,42,"//maps.google.com/maps?daddr=35.33218958330469,33.318661603912346",35.33218958330469,33.318661603912346
13,Fashion,fashion,12,17831,Journey &#8211; Famagusta,journey-famagusta,https://newcyprusguide.com/business/journey-famagusta/,43,"//maps.google.com/maps?daddr=35.134884193255004,33.92247781513595",35.134884193255004,33.92247781513595
13,Fashion,fashion,12,16498,Journey &#8211; Nicosia,journey-nicosia,https://newcyprusguide.com/business/journey-nicosia/,45,"//maps.google.com/maps?daddr=35.183975470354135,33.3514677023735",35.183975470354135,33.3514677023735
13,Fashion,fashion,12,16613,Journey &#8211; Kyrenia,journey-kyrenia,https://newcyprusguide.com/business/journey-kyrenia/,42,"//maps.google.com/maps?daddr=35.332158948772104,33.31880107878112",35.332158948772104,33.31880107878112
13,Fashion,fashion,12,16429,Kyo My Friend,kyo-my-friend,https://newcyprusguide.com/business/kyo-my-friend/,42,"//maps.google.com/maps?daddr=35.34161024526282,33.317969593986504",35.34161024526282,33.317969593986504
13,Fashion,fashion,12,16078,Gozz Concept Store,gozz-concept,https://newcyprusguide.com/business/gozz-concept/,42,"//maps.google.com/maps?daddr=35.33144341031654,33.32168579457664",35.33144341031654,33.32168579457664
13,Fashion,fashion,12,16145,The Children&#8217;s Place,childrens-place,https://newcyprusguide.com/business/childrens-place/,39,"//maps.google.com/maps?daddr=35.34834330512659,33.21393207071685",35.34834330512659,33.21393207071685
13,Fashion,fashion,12,16144,Neo Combine,neo-combined,https://newcyprusguide.com/business/neo-combined/,39,"//maps.google.com/maps?daddr=35.348326897052125,33.21386769770049",35.348326897052125,33.21386769770049
13,Fashion,fashion,12,16023,Vestidor Boutique,vestidor-boutique,https://newcyprusguide.com/business/vestidor-boutique/,42,"//maps.google.com/maps?daddr=35.348017330752356,33.194577250465386",35.348017330752356,33.194577250465386
13,Fashion,fashion,12,15546,The Gypsy Boutique,gypsy,https://newcyprusguide.com/business/gypsy/,39,"//maps.google.com/maps?daddr=35.34718816852901,33.209098730072014",35.34718816852901,33.209098730072014
13,Fashion,fashion,12,15305,Mebena Clothing,mebena-clothing,https://newcyprusguide.com/business/mebena-clothing/,42,"//maps.google.com/maps?daddr=35.33973407744484,33.31973985193633",35.33973407744484,33.31973985193633
13,Fashion,fashion,12,15015,Cadde Bostan Collection,cadde-bostan-collection,https://newcyprusguide.com/business/cadde-bostan-collection/,42,"//maps.google.com/maps?daddr=35.340364212136286,33.31963792799377",35.340364212136286,33.31963792799377
13,Fashion,fashion,12,14579,Tuşe Butik,tuse-butik,https://newcyprusguide.com/business/tuse-butik/,42,"//maps.google.com/maps?daddr=35.3351129395571,33.31095025299453",35.3351129395571,33.31095025299453
13,Fashion,fashion,12,14357,ZenZone,zenzone,https://newcyprusguide.com/business/zenzone/,42,"//maps.google.com/maps?daddr=35.33367534419469,33.31239059923553",35.33367534419469,33.31239059923553
13,Fashion,fashion,12,14204,Blue &amp; Blue Boutique,blue-blue-boutique,https://newcyprusguide.com/business/blue-blue-boutique/,45,"//maps.google.com/maps?daddr=35.20295977307978,33.32051232813262",35.20295977307978,33.32051232813262
13,Fashion,fashion,12,13185,Moda Street Butik,moda-street-butik,https://newcyprusguide.com/business/moda-street-butik/,45,"//maps.google.com/maps?daddr=35.176883440063136,33.35810348747634",35.176883440063136,33.35810348747634
13,Fashion,fashion,12,12219,Blackspade Cyprus,blackspade,https://newcyprusguide.com/business/blackspade/,45,"//maps.google.com/maps?daddr=35.20731889475647,33.315448317512505",35.20731889475647,33.315448317512505
13,Fashion,fashion,12,11220,Girne City,girne-city,https://newcyprusguide.com/business/girne-city/,42,"//maps.google.com/maps?daddr=35.34051736913143,33.31786230562591",35.34051736913143,33.31786230562591
13,Fashion,fashion,12,10110,Jack &amp; Jones,jack-jones,https://newcyprusguide.com/business/jack-jones/,42,"//maps.google.com/maps?daddr=35.33250468067966,33.31835046766662",35.33250468067966,33.31835046766662
13,Fashion,fashion,12,9173,Elit Hand Bags,elit-hand-bags,https://newcyprusguide.com/business/elit-hand-bags/,42,"//maps.google.com/maps?daddr=35.341383794666,33.31604376791381",35.341383794666,33.31604376791381
13,Fashion,fashion,12,5589,Tunceli Shoe Store,tunceli-shoe-store,https://newcyprusguide.com/business/tunceli-shoe-store/,43,"//maps.google.com/maps?daddr=35.128768460130786,33.93039837835693",35.128768460130786,33.93039837835693
13,Fashion,fashion,12,4984,Süvari &#8211; Nicosia,suvari-nicosia,https://newcyprusguide.com/business/suvari-nicosia/,45,"//maps.google.com/maps?daddr=35.20248856190148,33.32181051729583",35.20248856190148,33.32181051729583
13,Fashion,fashion,12,4971,Süvari &#8211; Kyrenia,suvari-kyrenia,https://newcyprusguide.com/business/suvari-kyrenia/,42,"//maps.google.com/maps?daddr=35.332662228906514,33.31588283537292",35.332662228906514,33.31588283537292
13,Fashion,fashion,12,5339,Kontes Valentin,kontes-valentin,https://newcyprusguide.com/business/kontes-valentin/,42,"//maps.google.com/maps?daddr=35.3371828569102,33.312674913391106",35.3371828569102,33.312674913391106
13,Fashion,fashion,12,5323,Kont Valentin,kont-valentin,https://newcyprusguide.com/business/kont-valentin/,42,"//maps.google.com/maps?daddr=35.33645642260895,33.30753311870956",35.33645642260895,33.30753311870956
13,Fashion,fashion,12,4751,Gense Design,gense-design,https://newcyprusguide.com/business/gense-design/,45,"//maps.google.com/maps?daddr=35.20965067674867,33.31889763830566",35.20965067674867,33.31889763830566
13,Fashion,fashion,12,3498,Brand 54,brand-54,https://newcyprusguide.com/business/brand-54/,42,"//maps.google.com/maps?daddr=35.33125303663303,33.32238451002502",35.33125303663303,33.32238451002502
14,Jewellery,jewellery,12,19855,Moonstar Gold,moonstar-gold,https://newcyprusguide.com/business/moonstar-gold/,42,"//maps.google.com/maps?daddr=35.19260235941312,33.36715460179709",35.19260235941312,33.36715460179709
14,Jewellery,jewellery,12,15117,Akay Optic &#8211; Kyrenia Main Branch,akay-optic-kyrenia,https://newcyprusguide.com/business/akay-optic-kyrenia/,42,"//maps.google.com/maps?daddr=35.334099842289646,33.311851475223534",35.334099842289646,33.311851475223534
14,Jewellery,jewellery,12,15142,Akay Optic &#8211; Kyrenia Downtown,akay-optic-kyrenia-downtown,https://newcyprusguide.com/business/akay-optic-kyrenia-downtown/,42,"//maps.google.com/maps?daddr=35.340219806703544,33.31870183704757",35.340219806703544,33.31870183704757
14,Jewellery,jewellery,12,15159,Swarovski &#8211; Kyrenia,swarovski-kyrenia,https://newcyprusguide.com/business/swarovski-kyrenia/,42,"//maps.google.com/maps?daddr=35.33717848081952,33.306304666980736",35.33717848081952,33.306304666980736
14,Jewellery,jewellery,12,15180,Swarovski &#8211; Nicosia,swarovski-nicosia,https://newcyprusguide.com/business/swarovski-nicosia/,45,"//maps.google.com/maps?daddr=35.18773278986065,33.35035726784133",35.18773278986065,33.35035726784133
14,Jewellery,jewellery,12,13746,Troy By Conkbayir,troy-by-conkbayir,https://newcyprusguide.com/business/troy-by-conkbayir/,45,"//maps.google.com/maps?daddr=35.19321719990814,33.346926722511284",35.19321719990814,33.346926722511284
14,Jewellery,jewellery,12,7669,Iray Jewellery,iray-jewellery,https://newcyprusguide.com/business/iray-jewellery/,45,"//maps.google.com/maps?daddr=35.1896135765007,33.36703524349605",35.1896135765007,33.36703524349605
14,Jewellery,jewellery,12,7656,LAL Jewellery,lal-jewellery,https://newcyprusguide.com/business/lal-jewellery/,45,"//maps.google.com/maps?daddr=35.20697701131685,33.342514488681786",35.20697701131685,33.342514488681786
14,Jewellery,jewellery,12,7446,Sevinç Gold &amp; Diamonds,sevinc-gold-diamonds,https://newcyprusguide.com/business/sevinc-gold-diamonds/,45,"//maps.google.com/maps?daddr=35.190836722071886,33.36733565090549",35.190836722071886,33.36733565090549
14,Jewellery,jewellery,12,6354,Erdinç Jewellery &#8211; Kyrenia,erdinc-jewellery-kyrenia,https://newcyprusguide.com/business/erdinc-jewellery-kyrenia/,42,"//maps.google.com/maps?daddr=35.340442978627195,33.31793472526931",35.340442978627195,33.31793472526931
